name,lat,lng,attr,distance(km),cool_time(h),cool_time(hms),reduction(hms)
函館,41.773709,140.726413,eco,152.834,7.88223,7時間52分56秒,8時間7分4秒
函館駅前,41.77264,140.727997,heat,152.903,7.88290,7時間52分58秒,8時間7分2秒
五稜郭,41.803557,140.733539,eco,149.508,7.84985,7時間50分59秒,8時間9分1秒
桔梗,41.846457,140.722952,heat,145.329,7.80917,7時間48分33秒,8時間11分27秒
大中山,41.864641,140.71358,heat,143.715,7.79345,7時間47分36秒,8時間12分24秒
七飯,41.886971,140.688556,heat,142.172,7.77843,7時間46分42秒,8時間13分18秒
新函館北斗,41.9054,140.646525,eco,141.647,7.77332,7時間46分24秒,8時間13分36秒
仁山,41.930011,140.635183,unknown,139.537,7.75278,7時間45分10秒,8時間14分50秒
大沼,41.971954,140.669347,heat,134.121,7.70004,7時間42分0秒,8時間18分0秒
大沼公園,41.980958,140.669758,cool,133.196,7.69103,7時間41分28秒,8時間18分32秒
赤井川,42.003267,140.642678,cool,131.904,7.67845,7時間40分42秒,8時間19分18秒
駒ヶ岳,42.038809,140.610476,cool,129.572,7.65575,7時間39分21秒,8時間20分39秒
東山(北海道),42.06172,140.605222,unknown,127.526,7.63582,7時間38分9秒,8時間21分51秒
姫川(北海道),42.081312,140.591632,unknown,126.158,7.62250,7時間37分21秒,8時間22分39秒
池田園,41.990692,140.700333,unknown,131.174,7.67134,7時間40分17秒,8時間19分43秒
流山温泉,42.003483,140.716358,unknown,129.340,7.65349,7時間39分13秒,8時間20分47秒
銚子口,42.015471,140.720656,unknown,127.976,7.64020,7時間38分25秒,8時間21分35秒
鹿部,42.06439,140.771393,cool,121.326,7.57545,7時間34分32秒,8時間25分28秒
渡島沼尻,42.10706,140.747596,cool,117.771,7.54084,7時間32分27秒,8時間27分33秒
渡島砂原,42.12164,140.689451,cool,118.397,7.54694,7時間32分49秒,8時間27分11秒
掛澗,42.119205,140.64598,eco,120.304,7.56550,7時間33分56秒,8時間26分4秒
尾白内,42.111232,140.613449,eco,122.376,7.58568,7時間35分8秒,8時間24分52秒
東森,42.106823,140.59353,eco,123.613,7.59772,7時間35分52秒,8時間24分8秒
森(北海道),42.108917,140.573846,eco,124.228,7.60371,7時間36分13秒,8時間23分47秒
桂川(北海道),42.1156,140.542788,unknown,124.916,7.61041,7時間36分37秒,8時間23分23秒
石谷,42.135519,140.506525,unknown,124.657,7.60789,7時間36分28秒,8時間23分32秒
本石倉,42.159668,140.471957,unknown,124.042,7.60190,7時間36分7秒,8時間23分53秒
石倉,42.17285,140.458436,eco,123.497,7.59659,7時間35分48秒,8時間24分12秒
落部,42.187617,140.420755,eco,124.038,7.60186,7時間36分7秒,8時間23分53秒
野田生,42.217104,140.37586,eco,123.787,7.59942,7時間35分58秒,8時間24分2秒
山越,42.231172,140.326593,eco,125.246,7.61362,7時間36分49秒,8時間23分11秒
八雲,42.253391,140.273342,eco,126.406,7.62492,7時間37分30秒,8時間22分30秒
鷲ノ巣,42.278389,140.269919,unknown,124.613,7.60746,7時間36分27秒,8時間23分33秒
山崎(北海道),42.314635,140.2746,eco,121.509,7.57724,7時間34分38秒,8時間25分22秒
黒岩,42.368296,140.288173,eco,116.616,7.52960,7時間31分47秒,8時間28分13秒
北豊津,42.400969,140.297868,unknown,113.604,7.50027,7時間30分1秒,8時間29分59秒
国縫,42.439319,140.320885,eco,109.393,7.45928,7時間27分33秒,8時間32分27秒
中ノ沢,42.477928,140.346077,unknown,105.065,7.41716,7時間25分2秒,8時間34分58秒
長万部,42.512477,140.37507,eco,100.810,7.37575,7時間22分33秒,8時間37分27秒
二股,42.575869,140.320821,unknown,100.288,7.37067,7時間22分14秒,8時間37分46秒
蕨岱,42.626353,140.313353,unknown,97.832,7.34678,7時間20分48秒,8時間39分12秒
黒松内,42.669608,140.305704,eco,96.031,7.32926,7時間19分45秒,8時間40分15秒
熱郛,42.675653,140.375084,eco,90.725,7.27765,7時間16分40秒,8時間43分20秒
目名,42.761432,140.465742,eco,79.756,7.17102,7時間10分16秒,8時間49分44秒
蘭越,42.804542,140.52894,heat,73.062,7.10599,7時間6分22秒,8時間53分38秒
昆布,42.797984,140.596107,heat,68.411,7.06084,7時間3分39秒,8時間56分21秒
ニセコ,42.808746,140.684588,heat,61.447,6.99327,6時間59分36秒,9時間0分24秒
比羅夫,42.84856,140.722615,heat,56.672,6.94696,6時間56分49秒,9時間3分11秒
倶知安,42.90164,140.745471,heat,52.620,6.90769,6時間54分28秒,9時間5分32秒
小沢,42.97185,140.677657,heat,55.769,6.93821,6時間56分18秒,9時間3分42秒
銀山,43.040888,140.715321,cool,51.722,6.89899,6時間53分56秒,9時間6分4秒
然別,43.12551,140.737211,cool,50.217,6.88442,6時間53分4秒,9時間6分56秒
仁木,43.154091,140.770546,cool,48.049,6.86342,6時間51分48秒,9時間8分12秒
余市,43.186558,140.794686,cool,46.995,6.85321,6時間51分12秒,9時間8分48秒
蘭島,43.19651,140.854643,cool,42.697,6.81162,6時間48分42秒,9時間11分18秒
塩谷,43.202406,140.924546,cool,37.649,6.76279,6時間45分46秒,9時間14分14秒
小樽,43.197172,140.993653,cool,32.313,6.71122,6時間42分40秒,9時間17分20秒
南小樽,43.186529,141.007883,cool,30.761,6.69623,6時間41分46秒,9時間18分14秒
小樽築港,43.180752,141.029051,cool,28.934,6.67859,6時間40分43秒,9時間19分17秒
朝里,43.176868,141.063923,cool,26.208,6.65228,6時間39分8秒,9時間20分52秒
銭函,43.143403,141.159868,cool,17.588,6.56916,6時間34分9秒,9時間25分51秒
ほしみ,43.13373,141.191402,cool,14.827,6.54256,6時間32分33秒,9時間27分27秒
星置,43.132375,141.210856,cool,13.391,6.52874,6時間31分43秒,9時間28分17秒
稲穂,43.128115,141.222919,cool,12.310,6.51833,6時間31分6秒,9時間28分54秒
手稲,43.120238,141.243785,eco,10.412,6.50007,6時間30分0秒,9時間30分0秒
稲積公園,43.112023,141.257113,eco,9.008,6.48656,6時間29分12秒,9時間30分48秒
発寒,43.099819,141.277273,eco,6.904,6.46633,6時間27分59秒,9時間32分1秒
発寒中央,43.089271,141.294497,eco,5.115,6.44913,6時間26分57秒,9時間33分3秒
琴似(JR),43.081599,141.307418,eco,3.806,6.43655,6時間26分12秒,9時間33分48秒
桑園,43.070744,141.332036,eco,1.540,6.41479,6時間24分53秒,9時間35分7秒
札幌,43.068612,141.350768,eco,0.000,6.40000,6時間24分0秒,9時間36分0秒
さっぽろ,43.06637,141.350299,heat,0.252,6.40242,6時間24分9秒,9時間35分51秒
苗穂,43.06826,141.373471,eco,1.845,6.41772,6時間25分4秒,9時間34分56秒
白石(JR),43.054715,141.413612,eco,5.334,6.45124,6時間27分4秒,9時間32分56秒
厚別,43.045154,141.46369,eco,9.538,6.49166,6時間29分30秒,9時間30分30秒
森林公園(北海道),43.056456,141.481332,eco,10.693,6.50277,6時間30分10秒,9時間29分50秒
大麻,43.072382,141.496925,eco,11.880,6.51419,6時間30分51秒,9時間29分9秒
野幌,43.092559,141.52984,eco,14.785,6.54216,6時間32分32秒,9時間27分28秒
高砂(北海道),43.100084,141.540752,eco,15.821,6.55214,6時間33分8秒,9時間26分52秒
江別,43.110189,141.55679,eco,17.357,6.56693,6時間34分1秒,9時間25分59秒
豊幌,43.136446,141.62466,eco,23.481,6.62597,6時間37分33秒,9時間22分27秒
幌向,43.151348,141.655839,eco,26.418,6.65431,6時間39分15秒,9時間20分45秒
上幌向,43.18183,141.715391,eco,32.158,6.70973,6時間42分35秒,9時間17分25秒
岩見沢,43.204201,141.759359,eco,36.421,6.75092,6時間45分3秒,9時間14分57秒
峰延,43.264694,141.814673,eco,43.485,6.81924,6時間49分9秒,9時間10分51秒
光珠内,43.292658,141.844655,eco,47.163,6.85484,6時間51分17秒,9時間8分43秒
美唄,43.330751,141.862157,eco,50.674,6.88884,6時間53分20秒,9時間6分40秒
茶志内,43.369842,141.87336,eco,53.992,6.92099,6時間55分16秒,9時間4分44秒
奈井江,43.423718,141.889115,eco,58.825,6.96784,6時間58分4秒,9時間1分56秒
豊沼,43.464224,141.901032,eco,62.611,7.00456,7時間0分16秒,8時間59分44秒
砂川,43.493468,141.909642,eco,65.410,7.03171,7時間1分54秒,8時間58分6秒
滝川,43.555278,141.900807,eco,70.063,7.07687,7時間4分37秒,8時間55分23秒
江部乙,43.627564,141.935937,heat,78.114,7.15506,7時間9分18秒,8時間50分42秒
妹背牛,43.690841,141.966591,heat,85.229,7.22421,7時間13分27秒,8時間46分33秒
深川,43.721021,142.041642,heat,91.535,7.28552,7時間17分8秒,8時間42分52秒
納内,43.732509,142.130072,heat,97.023,7.33891,7時間20分20秒,8時間39分40秒
神居古潭,43.732833,142.202222,unknown,100.929,7.37691,7時間22分37秒,8時間37分23秒
伊納,43.763305,142.27167,unknown,107.235,7.43828,7時間26分18秒,8時間33分42秒
近文,43.789193,142.325327,heat,112.308,7.48766,7時間29分16秒,8時間30分44秒
旭川,43.763492,142.357803,heat,112.186,7.48647,7時間29分11秒,8時間30分49秒
静狩,42.584065,140.460025,eco,90.442,7.27490,7時間16分30秒,8時間43分30秒
小幌,42.589731,140.537361,eco,85.061,7.22258,7時間13分21秒,8時間46分39秒
礼文,42.580422,140.595013,eco,82.132,7.19411,7時間11分39秒,8時間48分21秒
大岸,42.585969,140.639036,eco,79.051,7.16417,7時間9分51秒,8時間50分9秒
豊浦,42.580323,140.71536,eco,75.055,7.12535,7時間7分31秒,8時間52分29秒
洞爺,42.55055,140.763959,eco,74.898,7.12382,7時間7分26秒,8時間52分34秒
有珠,42.513267,140.793969,eco,76.665,7.14099,7時間8分28秒,8時間51分32秒
長和,42.488262,140.833783,eco,77.102,7.14523,7時間8分43秒,8時間51分17秒
伊達紋別,42.469395,140.855802,eco,77.922,7.15320,7時間9分12秒,8時間50分48秒
北舟岡,42.450528,140.880259,eco,78.734,7.16109,7時間9分40秒,8時間50分20秒
稀府,42.425567,140.898836,eco,80.464,7.17790,7時間10分40秒,8時間49分20秒
黄金(北海道),42.386441,140.907781,eco,84.042,7.21267,7時間12分46秒,8時間47分14秒
崎守,42.373968,140.927141,eco,84.639,7.21848,7時間13分7秒,8時間46分53秒
本輪西,42.358734,140.977561,eco,84.619,7.21828,7時間13分6秒,8時間46分54秒
室蘭,42.317864,140.97571,cool,88.929,7.26018,7時間15分37秒,8時間44分23秒
母恋,42.317295,140.990018,cool,88.592,7.25691,7時間15分25秒,8時間44分35秒
御崎,42.329014,140.993881,cool,87.258,7.24394,7時間14分38秒,8時間45分22秒
輪西,42.333775,141.005743,cool,86.437,7.23595,7時間14分9秒,8時間45分51秒
東室蘭,42.349374,141.026411,cool,84.252,7.21471,7時間12分53秒,8時間47分7秒
鷲別,42.35953,141.042759,cool,82.764,7.20025,7時間12分1秒,8時間47分59秒
幌別,42.409782,141.107293,cool,75.909,7.13364,7時間8分1秒,8時間51分59秒
富浦(北海道),42.441957,141.156878,cool,71.456,7.09040,7時間5分25秒,8時間54分35秒
登別,42.45207,141.180931,cool,69.944,7.07572,7時間4分33秒,8時間55分27秒
虎杖浜,42.464695,141.215092,heat,68.060,7.05743,7時間3分27秒,8時間56分33秒
竹浦,42.49284,141.260395,heat,64.446,7.02236,7時間1分20秒,8時間58分40秒
北吉原,42.509119,141.286199,heat,62.435,7.00285,7時間0分10秒,8時間59分50秒
萩野,42.521159,141.30603,heat,60.983,6.98877,6時間59分20秒,9時間0分40秒
白老,42.55474,141.360054,heat,57.145,6.95155,6時間57分6秒,9時間2分54秒
社台,42.578682,141.417433,heat,54.748,6.92832,6時間55分42秒,9時間4分18秒
錦岡,42.6025,141.48722,heat,53.010,6.91147,6時間54分41秒,9時間5分19秒
糸井,42.6225,141.546187,heat,52.101,6.90267,6時間54分10秒,9時間5分50秒
青葉,42.62999,141.568278,heat,51.896,6.90068,6時間54分2秒,9時間5分58秒
苫小牧,42.639665,141.596837,eco,51.743,6.89920,6時間53分57秒,9時間6分3秒
沼ノ端,42.672057,141.693132,eco,52.180,6.90343,6時間54分12秒,9時間5分48秒
遠浅,42.729533,141.769568,heat,50.846,6.89051,6時間53分26秒,9時間6分34秒
早来,42.765237,141.814106,heat,50.612,6.88824,6時間53分18秒,9時間6分42秒
安平,42.814007,141.825283,cool,47.890,6.86188,6時間51分43秒,9時間8分17秒
追分(北海道),42.873316,141.810678,cool,43.264,6.81710,6時間49分2秒,9時間10分58秒
三川(北海道),42.945029,141.800778,cool,39.087,6.77670,6時間46分36秒,9時間13分24秒
古山,42.975256,141.793969,eco,37.495,6.76130,6時間45分41秒,9時間14分19秒
由仁,43.012206,141.785868,eco,35.912,6.74600,6時間44分46秒,9時間15分14秒
栗山,43.058164,141.775603,eco,34.533,6.73267,6時間43分58秒,9時間16分2秒
栗丘,43.085444,141.744333,eco,32.020,6.70839,6時間42分30秒,9時間17分30秒
栗沢,43.120367,141.739743,eco,32.104,6.70920,6時間42分33秒,9時間17分27秒
志文,43.158903,141.744443,eco,33.495,6.72264,6時間43分22秒,9時間16分38秒
東滝川,43.574037,141.98031,unknown,75.842,7.13299,7時間7分59秒,8時間52分1秒
赤平,43.555144,142.048669,eco,78.199,7.15589,7時間9分21秒,8時間50分39秒
茂尻,43.537314,142.082156,eco,78.860,7.16231,7時間9分44秒,8時間50分16秒
平岸(JR),43.541401,142.123872,eco,81.714,7.19005,7時間11分24秒,8時間48分36秒
芦別,43.516636,142.184543,eco,83.877,7.21107,7時間12分40秒,8時間47分20秒
上芦別,43.48871,142.210855,eco,83.844,7.21075,7時間12分39秒,8時間47分21秒
野花南,43.474418,142.261772,eco,86.465,7.23623,7時間14分10秒,8時間45分50秒
島ノ下,43.3744,142.350406,unknown,87.846,7.24965,7時間14分59秒,8時間45分1秒
富良野,43.347114,142.391374,cool,89.843,7.26907,7時間16分9秒,8時間43分51秒
布部,43.291991,142.400595,unknown,88.673,7.25769,7時間15分28秒,8時間44分32秒
山部,43.244645,142.381522,unknown,85.870,7.23044,7時間13分50秒,8時間46分10秒
下金山,43.197328,142.415402,unknown,87.568,7.24695,7時間14分49秒,8時間45分11秒
金山(北海道),43.136115,142.416201,unknown,86.824,7.23972,7時間14分23秒,8時間45分37秒
東鹿越,43.164011,142.523472,unknown,95.775,7.32677,7時間19分36秒,8時間40分24秒
幾寅,43.161582,142.569474,unknown,99.461,7.36263,7時間21分45秒,8時間38分15秒
落合(北海道),43.125055,142.669104,unknown,107.224,7.43817,7時間26分17秒,8時間33分43秒
新得,43.082501,142.832432,cool,120.353,7.56598,7時間33分58秒,8時間26分2秒
十勝清水,43.012892,142.879535,cool,124.394,7.60533,7時間36分19秒,8時間23分41秒
羽帯,42.957499,142.906646,unknown,127.102,7.63169,7時間37分54秒,8時間22分6秒
御影(北海道),42.942418,142.935739,cool,129.642,7.65643,7時間39分23秒,8時間20分37秒
芽室,42.909846,143.047991,cool,139.169,7.74919,7時間44分57秒,8時間15分3秒
大成,42.918662,143.071241,cool,140.916,7.76620,7時間45分58秒,8時間14分2秒
西帯広,42.923941,143.126351,cool,145.295,7.80884,7時間48分32秒,8時間11分28秒
柏林台,42.928877,143.1645,cool,148.314,7.83823,7時間50分18秒,8時間9分42秒
帯広,42.917997,143.20195,cool,151.485,7.86910,7時間52分9秒,8時間7分51秒
札内,42.912697,143.256248,eco,155.946,7.91251,7時間54分45秒,8時間5分15秒
稲士別,42.903963,143.297528,unknown,159.402,7.94615,7時間56分46秒,8時間3分14秒
幕別,42.90784,143.359293,eco,164.341,7.99420,7時間59分39秒,8時間0分21秒
利別,42.934706,143.424445,eco,169.284,8.04228,8時間2分32秒,7時間57分28秒
池田(北海道),42.922186,143.453033,eco,171.744,8.06621,8時間3分58秒,7時間56分2秒
十弗,42.855781,143.500797,eco,176.542,8.11286,8時間6分46秒,7時間53分14秒
豊頃,42.817548,143.538615,eco,180.256,8.14896,8時間8分56秒,7時間51分4秒
新吉野,42.778238,143.60826,eco,186.622,8.21081,8時間12分39秒,7時間47分21秒
浦幌,42.810849,143.651568,eco,189.465,8.23842,8時間14分18秒,7時間45分42秒
上厚内,42.831881,143.749788,unknown,197.012,8.31168,8時間18分42秒,7時間41分18秒
厚内,42.809539,143.814389,eco,202.598,8.36587,8時間21分57秒,7時間38分3秒
直別,42.852205,143.863607,unknown,205.886,8.39775,8時間23分52秒,7時間36分8秒
尺別,42.869163,143.904331,unknown,208.940,8.42735,8時間25分38秒,7時間34分22秒
音別,42.888997,143.932442,eco,210.960,8.44692,8時間26分49秒,7時間33分11秒
古瀬,42.947893,144.008589,unknown,216.520,8.50077,8時間30分3秒,7時間29分57秒
白糠,42.956161,144.076879,heat,221.993,8.55373,8時間33分13秒,7時間26分47秒
西庶路,42.976138,144.129826,heat,226.142,8.59386,8時間35分38秒,7時間24分22秒
庶路,42.983601,144.150018,heat,227.732,8.60923,8時間36分33秒,7時間23分27秒
大楽毛,43.009078,144.273879,heat,237.645,8.70497,8時間42分18秒,7時間17分42秒
新大楽毛,43.009423,144.295558,heat,239.405,8.72195,8時間43分19秒,7時間16分41秒
新富士(北海道),43.001605,144.350758,heat,243.929,8.76558,8時間45分56秒,7時間14分4秒
釧路,42.990584,144.381983,eco,246.527,8.79062,8時間47分26秒,7時間12分34秒
東釧路,42.995207,144.411307,eco,248.882,8.81331,8時間48分48秒,7時間11分12秒
武佐(北海道),42.991364,144.426681,heat,250.153,8.82555,8時間49分32秒,7時間10分28秒
別保,42.994384,144.469596,heat,253.622,8.85894,8時間51分32秒,7時間8分28秒
上尾幌,43.032893,144.61239,heat,265.038,8.96868,8時間58分7秒,7時間1分53秒
尾幌,43.018463,144.703758,cool,272.520,9.04046,9時間2分26秒,6時間57分34秒
門静,43.057581,144.782638,cool,278.786,9.10048,9時間6分2秒,6時間53分58秒
厚岸,43.056248,144.841355,cool,283.559,9.14614,9時間8分46秒,6時間51分14秒
糸魚沢,43.103506,144.92545,unknown,290.300,9.21055,9時間12分38秒,6時間47分22秒
茶内,43.129266,145.02801,cool,298.614,9.28984,9時間17分23秒,6時間42分37秒
浜中,43.15754,145.099657,cool,304.444,9.34534,9時間20分43秒,6時間39分17秒
姉別,43.196201,145.194716,eco,312.221,9.41923,9時間25分9秒,6時間34分51秒
厚床,43.228224,145.252096,eco,316.968,9.46426,9時間27分51秒,6時間32分9秒
初田牛,43.204542,145.32277,unknown,322.619,9.51779,9時間31分4秒,6時間28分56秒
別当賀,43.218427,145.423593,eco,330.826,9.59536,9時間35分43秒,6時間24分17秒
落石,43.198335,145.519449,eco,338.544,9.66813,9時間40分5秒,6時間19分55秒
昆布盛,43.228593,145.542444,eco,340.482,9.68638,9時間41分11秒,6時間18分49秒
西和田,43.268043,145.541817,eco,340.579,9.68729,9時間41分14秒,6時間18分46秒
花咲,43.295388,145.575045,unknown,343.401,9.71384,9時間42分50秒,6時間17分10秒
東根室,43.323655,145.597234,unknown,345.359,9.73225,9時間43分56秒,6時間16分4秒
根室,43.326923,145.582707,eco,344.206,9.72141,9時間43分17秒,6時間16分43秒
植苗,42.713645,141.735344,eco,50.393,6.88612,6時間53分10秒,9時間6分50秒
美々,42.777418,141.711387,unknown,43.711,6.82143,6時間49分17秒,9時間10分43秒
新千歳空港,42.787546,141.680823,eco,41.217,6.79730,6時間47分50秒,9時間12分10秒
南千歳,42.80804,141.675388,eco,39.215,6.77793,6時間46分41秒,9時間13分19秒
千歳(北海道),42.82811,141.651934,eco,36.277,6.74953,6時間44分58秒,9時間15分2秒
長都,42.852178,141.622987,eco,32.709,6.71505,6時間42分54秒,9時間17分6秒
サッポロビール庭園,42.866812,141.605616,heat,30.553,6.69422,6時間41分39秒,9時間18分21秒
恵庭,42.883076,141.586234,heat,28.153,6.67105,6時間40分16秒,9時間19分44秒
恵み野,42.902704,141.574429,heat,25.910,6.64940,6時間38分58秒,9時間21分2秒
島松,42.922504,141.573117,heat,24.310,6.63397,6時間38分2秒,9時間21分58秒
北広島,42.979239,141.563115,heat,19.918,6.59161,6時間35分30秒,9時間24分30秒
上野幌,43.016177,141.487317,cool,12.535,6.52050,6時間31分14秒,9時間28分46秒
新札幌,43.038732,141.47237,cool,10.424,6.50018,6時間30分1秒,9時間29分59秒
新さっぽろ,43.039141,141.473106,cool,10.466,6.50059,6時間30分2秒,9時間29分58秒
平和,43.04695,141.437967,cool,7.483,6.47190,6時間28分19秒,9時間31分41秒
東追分,42.902377,141.83228,unknown,43.310,6.81755,6時間49分3秒,9時間10分57秒
川端,42.914721,141.894791,cool,47.441,6.85753,6時間51分27秒,9時間8分33秒
滝ノ上,42.910244,141.97628,unknown,53.838,6.91950,6時間55分10秒,9時間4分50秒
十三里,42.914667,142.024478,unknown,57.407,6.95409,6時間57分15秒,9時間2分45秒
新夕張,42.936611,142.03657,cool,57.668,6.95662,6時間57分24秒,9時間2分36秒
沼ノ沢,42.957586,142.030836,unknown,56.655,6.94680,6時間56分48秒,9時間3分12秒
南清水沢,42.985272,142.006597,unknown,54.110,6.92213,6時間55分20秒,9時間4分40秒
清水沢,42.99827,142.007285,unknown,53.931,6.92040,6時間55分13秒,9時間4分47秒
鹿ノ谷,43.039447,141.964476,unknown,49.970,6.88202,6時間52分55秒,9時間7分5秒
夕張,43.050926,141.967472,unknown,50.142,6.88369,6時間53分1秒,9時間6分59秒
占冠,42.993088,142.400078,eco,85.702,7.22881,7時間13分44秒,8時間46分16秒
トマム,43.055913,142.610937,eco,102.385,7.39108,7時間23分28秒,8時間36分32秒
勇払,42.632805,141.727667,eco,57.379,6.95382,6時間57分14秒,9時間2分46秒
浜厚真,42.606725,141.837071,eco,64.885,7.02662,7時間1分36秒,8時間58分24秒
浜田浦,42.590722,141.88362,unknown,68.643,7.06309,7時間3分47秒,8時間56分13秒
鵡川,42.578953,141.923892,eco,71.758,7.09333,7時間5分36秒,8時間54分24秒
汐見,42.550235,141.945255,unknown,75.327,7.12799,7時間7分41秒,8時間52分19秒
富川,42.516865,142.020855,unknown,82.179,7.19457,7時間11分40秒,8時間48分20秒
日高門別,42.481237,142.072692,unknown,87.964,7.25080,7時間15分3秒,8時間44分57秒
豊郷(北海道),42.470119,142.122493,unknown,91.635,7.28650,7時間17分11秒,8時間42分49秒
清畠,42.455709,142.176624,unknown,95.864,7.32763,7時間19分39秒,8時間40分21秒
厚賀,42.430507,142.215896,unknown,100.122,7.36906,7時間22分9秒,8時間37分51秒
大狩部,42.395695,142.259355,unknown,105.383,7.42025,7時間25分13秒,8時間34分47秒
節婦,42.38248,142.275541,unknown,107.363,7.43952,7時間26分22秒,8時間33分38秒
新冠,42.360667,142.312585,unknown,111.226,7.47712,7時間28分38秒,8時間31分22秒
静内,42.336559,142.360402,unknown,115.898,7.52261,7時間31分21秒,8時間28分39秒
東静内,42.304416,142.450485,unknown,123.693,7.59850,7時間35分55秒,8時間24分5秒
春立,42.268515,142.498943,unknown,129.333,7.65342,7時間39分12秒,8時間20分48秒
日高東別,42.280837,142.521371,unknown,129.734,7.65732,7時間39分26秒,8時間20分34秒
日高三石,42.247269,142.566859,unknown,135.017,7.70876,7時間42分32秒,8時間17分28秒
蓬栄,42.264636,142.604517,unknown,136.013,7.71846,7時間43分6秒,8時間16分54秒
本桐,42.248205,142.630455,unknown,138.822,7.74581,7時間44分45秒,8時間15分15秒
荻伏,42.206136,142.689432,unknown,145.559,7.81141,7時間48分41秒,8時間11分19秒
絵笛,42.198428,142.736134,unknown,149.015,7.84505,7時間50分42秒,8時間9分18秒
浦河,42.168366,142.769976,unknown,153.313,7.88689,7時間53分13秒,8時間6分47秒
東町,42.156037,142.788931,unknown,155.392,7.90712,7時間54分26秒,8時間5分34秒
日高幌別,42.142338,142.834519,unknown,159.227,7.94444,7時間56分40秒,8時間3分20秒
鵜苫,42.134449,142.882513,unknown,162.807,7.97928,7時間58分45秒,8時間1分15秒
西様似,42.138411,142.908737,unknown,164.184,7.99268,7時間59分34秒,8時間0分26秒
様似,42.127936,142.93596,unknown,166.657,8.01673,8時間1分0秒,7時間59分0秒
八軒,43.085845,141.319145,cool,3.204,6.43077,6時間25分51秒,9時間34分9秒
新川(北海道),43.098604,141.323824,cool,3.989,6.43831,6時間26分18秒,9時間33分42秒
新琴似,43.112928,141.335105,cool,5.089,6.44888,6時間26分56秒,9時間33分4秒
太平,43.12401,141.349526,cool,6.161,6.45919,6時間27分33秒,9時間32分27秒
百合が原,43.131476,141.360672,cool,7.036,6.46760,6時間28分3秒,9時間31分57秒
篠路,43.145152,141.364323,cool,8.582,6.48246,6時間28分57秒,9時間31分3秒
拓北,43.155568,141.381013,eco,9.976,6.49587,6時間29分45秒,9時間30分15秒
あいの里教育大,43.15528,141.39842,eco,10.384,6.49980,6時間29分59秒,9時間30分1秒
あいの里公園,43.161206,141.413276,eco,11.478,6.51033,6時間30分37秒,9時間29分23秒
ロイズタウン,43.179589,141.436236,eco,14.156,6.53610,6時間32分10秒,9時間27分50秒
太美,43.189801,141.449066,eco,15.660,6.55059,6時間33分2秒,9時間26分58秒
当別,43.22208,141.513764,eco,21.589,6.60772,6時間36分28秒,9時間23分32秒
北海道医療大学,43.230925,141.54995,eco,24.225,6.63315,6時間37分59秒,9時間22分1秒
石狩金沢,43.245385,141.569239,unknown,26.465,6.65476,6時間39分17秒,9時間20分43秒
本中小屋,43.28019,141.591661,unknown,30.579,6.69447,6時間41分40秒,9時間18分20秒
中小屋,43.306846,141.602341,unknown,33.433,6.72204,6時間43分19秒,9時間16分41秒
月ヶ岡,43.324867,141.61807,unknown,35.797,6.74489,6時間44分42秒,9時間15分18秒
知来乙,43.331545,141.649123,unknown,37.943,6.76563,6時間45分56秒,9時間14分4秒
石狩月形,43.340869,141.670193,unknown,39.834,6.78392,6時間47分2秒,9時間12分58秒
豊ヶ岡,43.366645,141.714026,unknown,44.325,6.82737,6時間49分39秒,9時間10分21秒
札比内,43.370926,141.742762,unknown,46.249,6.84599,6時間50分46秒,9時間9分14秒
晩生内,43.399921,141.779211,unknown,50.615,6.88827,6時間53分18秒,9時間6分42秒
札的,43.419153,141.803549,unknown,53.520,6.91642,6時間54分59秒,9時間5分1秒
浦臼,43.430964,141.817376,unknown,55.241,6.93309,6時間55分59秒,9時間4分1秒
鶴沼,43.457673,141.840637,unknown,58.694,6.96657,6時間58分0秒,9時間2分0秒
於札内,43.473424,141.840102,unknown,59.964,6.97888,6時間58分44秒,9時間1分16秒
南下徳富,43.485542,141.844454,unknown,61.209,6.99096,6時間59分27秒,9時間0分33秒
下徳富,43.50271,141.855574,unknown,63.242,7.01068,7時間0分38秒,8時間59分22秒
新十津川,43.545575,141.874172,unknown,67.870,7.05559,7時間3分20秒,8時間56分40秒
北一已,43.742021,142.014721,heat,92.107,7.29109,7時間17分28秒,8時間42分32秒
秩父別,43.769099,141.967757,heat,92.466,7.29458,7時間17分40秒,8時間42分20秒
北秩父別,43.789375,141.960915,heat,94.078,7.31026,7時間18分37秒,8時間41分23秒
石狩沼田,43.810032,141.934266,heat,94.953,7.31877,7時間19分8秒,8時間40分52秒
真布,43.832965,141.906756,unknown,96.114,7.33006,7時間19分48秒,8時間40分12秒
恵比島,43.851296,141.88144,unknown,96.999,7.33867,7時間20分19秒,8時間39分41秒
峠下,43.850789,141.818879,unknown,94.826,7.31753,7時間19分3秒,8時間40分57秒
幌糠,43.855521,141.758418,unknown,93.481,7.30445,7時間18分16秒,8時間41分44秒
藤山,43.88708,141.720588,unknown,95.776,7.32678,7時間19分36秒,8時間40分24秒
大和田(北海道),43.913418,141.696528,unknown,97.991,7.34832,7時間20分54秒,8時間39分6秒
留萌,43.942848,141.651433,unknown,100.189,7.36971,7時間22分11秒,8時間37分49秒
瀬越,43.934987,141.634535,unknown,99.018,7.35832,7時間21分30秒,8時間38分30秒
礼受,43.904871,141.611358,unknown,95.335,7.32249,7時間19分21秒,8時間40分39秒
阿分,43.894339,141.605598,unknown,94.090,7.31037,7時間18分37秒,8時間41分23秒
信砂,43.874479,141.589039,unknown,91.648,7.28662,7時間17分12秒,8時間42分48秒
舎熊,43.869113,141.580068,unknown,90.915,7.27950,7時間16分46秒,8時間43分14秒
朱文別,43.860678,141.564328,unknown,89.744,7.26811,7時間16分5秒,8時間43分55秒
箸別,43.859125,141.55164,unknown,89.383,7.26460,7時間15分53秒,8時間44分7秒
増毛,43.856522,141.527559,unknown,88.766,7.25860,7時間15分31秒,8時間44分29秒
神楽岡,43.745033,142.358257,heat,110.819,7.47316,7時間28分23秒,8時間31分37秒
緑が丘(北海道),43.731074,142.365701,heat,110.225,7.46738,7時間28分3秒,8時間31分57秒
西御料,43.720834,142.371507,heat,109.824,7.46348,7時間27分49秒,8時間32分11秒
西瑞穂,43.70242,142.381982,heat,109.137,7.45679,7時間27分24秒,8時間32分36秒
西神楽,43.682181,142.393677,heat,108.442,7.45003,7時間27分0秒,8時間33分0秒
西聖和,43.669047,142.415209,heat,108.906,7.45454,7時間27分16秒,8時間32分44秒
千代ヶ岡,43.643737,142.451024,heat,109.556,7.46087,7時間27分39秒,8時間32分21秒
北美瑛,43.617884,142.479594,heat,109.831,7.46355,7時間27分49秒,8時間32分11秒
美瑛,43.591186,142.461639,heat,107.003,7.43602,7時間26分10秒,8時間33分50秒
美馬牛,43.537408,142.447192,eco,102.902,7.39611,7時間23分46秒,8時間36分14秒
上富良野,43.464046,142.468761,eco,100.636,7.37406,7時間22分27秒,8時間37分33秒
西中,43.429569,142.441876,eco,97.058,7.33925,7時間20分21秒,8時間39分39秒
ラベンダー畑,43.416919,142.430681,eco,95.663,7.32568,7時間19分32秒,8時間40分28秒
中富良野,43.405704,142.420812,cool,94.438,7.31376,7時間18分50秒,8時間41分10秒
鹿討,43.387499,142.404812,cool,92.467,7.29459,7時間17分41秒,8時間42分19秒
学田,43.366234,142.386118,cool,90.189,7.27244,7時間16分21秒,8時間43分39秒
旭川四条,43.764056,142.375815,heat,113.288,7.49720,7時間29分50秒,8時間30分10秒
新旭川,43.780174,142.384789,heat,115.036,7.51421,7時間30分51秒,8時間29分9秒
永山,43.814158,142.434382,heat,120.524,7.56764,7時間34分4秒,8時間25分56秒
北永山,43.826736,142.454493,heat,122.658,7.58842,7時間35分18秒,8時間24分42秒
南比布,43.853342,142.467271,unknown,125.434,7.61545,7時間36分56秒,8時間23分4秒
比布,43.874478,142.471294,heat,127.299,7.63361,7時間38分1秒,8時間21分59秒
北比布,43.901728,142.476545,unknown,129.732,7.65730,7時間39分26秒,8時間20分34秒
蘭留,43.925072,142.473699,heat,131.428,7.67382,7時間40分26秒,8時間19分34秒
塩狩,43.96794,142.4552,heat,133.903,7.69792,7時間41分53秒,8時間18分7秒
和寒,44.026932,142.415309,heat,136.804,7.72616,7時間43分34秒,8時間16分26秒
東六線,44.068723,142.388073,unknown,139.106,7.74858,7時間44分55秒,8時間15分5秒
剣淵,44.09643,142.364754,heat,140.470,7.76186,7時間45分43秒,8時間14分17秒
北剣淵,44.139423,142.377955,unknown,144.973,7.80570,7時間48分21秒,8時間11分39秒
士別,44.172536,142.388247,cool,148.463,7.83968,7時間50分23秒,8時間9分37秒
下士別,44.210583,142.396405,unknown,152.327,7.87729,7時間52分38秒,8時間7分22秒
多寄,44.241296,142.396315,cool,155.169,7.90495,7時間54分18秒,8時間5分42秒
瑞穂,44.266349,142.396244,cool,157.505,7.92769,7時間55分40秒,8時間4分20秒
風連,44.292238,142.421624,cool,161.019,7.96188,7時間57分43秒,8時間2分17秒
名寄高校,44.331382,142.465484,cool,166.568,8.01587,8時間0分57秒,7時間59分3秒
名寄,44.349403,142.465207,cool,168.242,8.03215,8時間1分56秒,7時間58分4秒
日進(北海道),44.381713,142.467354,cool,171.371,8.06258,8時間3分45秒,7時間56分15秒
北星,44.441569,142.428116,unknown,175.478,8.10251,8時間6分9秒,7時間53分51秒
智恵文,44.455553,142.414772,cool,176.306,8.11056,8時間6分38秒,7時間53分22秒
智北,44.46103,142.394007,cool,176.038,8.10796,8時間6分29秒,7時間53分31秒
南美深,44.462604,142.367822,unknown,175.201,8.09982,8時間5分59秒,7時間54分1秒
美深,44.482951,142.350597,cool,176.567,8.11310,8時間6分47秒,7時間53分13秒
初野,44.512808,142.336129,unknown,179.005,8.13680,8時間8分12秒,7時間51分48秒
紋穂内,44.538761,142.33357,unknown,181.501,8.16106,8時間9分40秒,7時間50分20秒
恩根内,44.598486,142.309447,unknown,186.683,8.21140,8時間12分41秒,7時間47分19秒
豊清水,44.639503,142.270342,unknown,189.597,8.23970,8時間14分23秒,7時間45分37秒
天塩川温泉,44.665041,142.258682,cool,191.853,8.26161,8時間15分42秒,7時間44分18秒
咲来,44.692702,142.267569,cool,194.963,8.29180,8時間17分30秒,7時間42分30秒
音威子府,44.729448,142.259883,cool,198.519,8.32630,8時間19分35秒,7時間40分25秒
筬島,44.738883,142.197777,cool,197.731,8.31866,8時間19分7秒,7時間40分53秒
佐久,44.743986,142.048562,cool,194.498,8.28728,8時間17分14秒,7時間42分46秒
天塩中川,44.81186,142.075335,cool,202.333,8.36330,8時間21分48秒,7時間38分12秒
歌内,44.880493,142.052162,unknown,209.141,8.42930,8時間25分45秒,7時間34分15秒
問寒別,44.91233,142.025562,cool,211.998,8.45698,8時間27分25秒,7時間32分35秒
糠南,44.920778,142.000931,cool,212.415,8.46102,8時間27分40秒,7時間32分20秒
雄信内,44.911735,141.935888,unknown,210.222,8.43977,8時間26分23秒,7時間33分37秒
安牛,44.949809,141.894187,unknown,213.645,8.47293,8時間28分23秒,7時間31分37秒
南幌延,44.965084,141.884892,unknown,215.158,8.48758,8時間29分15秒,7時間30分45秒
上幌延,44.985787,141.880905,unknown,217.351,8.50881,8時間30分32秒,7時間29分28秒
幌延,45.014503,141.84569,eco,219.959,8.53405,8時間32分3秒,7時間27分57秒
下沼,45.037146,141.758218,eco,221.299,8.54702,8時間32分49秒,7時間27分11秒
豊富,45.104624,141.772088,eco,228.880,8.62032,8時間37分13秒,7時間22分47秒
徳満,45.145838,141.751039,unknown,233.177,8.66183,8時間39分43秒,7時間20分17秒
兜沼,45.220236,141.6972,eco,240.841,8.73580,8時間44分9秒,7時間15分51秒
勇知,45.259339,141.685151,eco,245.053,8.77641,8時間46分35秒,7時間13分25秒
抜海,45.316866,141.644576,unknown,251.089,8.83456,8時間50分4秒,7時間9分56秒
南稚内,45.398166,141.683026,eco,260.383,8.92396,8時間55分26秒,7時間4分34秒
稚内,45.416995,141.676999,eco,262.418,8.94351,8時間56分37秒,7時間3分23秒
南永山,43.78055,142.40853,heat,116.463,7.52811,7時間31分41秒,8時間28分19秒
東旭川,43.776571,142.441544,heat,118.139,7.54442,7時間32分40秒,8時間27分20秒
北日ノ出,43.781813,142.466127,unknown,120.008,7.56262,7時間33分45秒,8時間26分15秒
桜岡,43.801812,142.486968,heat,122.731,7.58913,7時間35分21秒,8時間24分39秒
当麻,43.825477,142.516987,heat,126.277,7.62366,7時間37分25秒,8時間22分35秒
将軍山,43.857455,142.521559,unknown,128.926,7.64945,7時間38分58秒,8時間21分2秒
伊香牛,43.876025,142.525227,eco,130.544,7.66521,7時間39分55秒,8時間20分5秒
愛別,43.898635,142.582176,eco,135.602,7.71446,7時間42分52秒,8時間17分8秒
中愛別,43.896216,142.655424,eco,139.813,7.75546,7時間45分20秒,8時間14分40秒
愛山,43.866442,142.680699,unknown,139.243,7.74991,7時間45分0秒,8時間15分0秒
安足間,43.852011,142.693868,eco,139.063,7.74816,7時間44分53秒,8時間15分7秒
東雲(北海道),43.843693,142.716544,unknown,139.928,7.75658,7時間45分24秒,8時間14分36秒
上川,43.848508,142.766895,eco,143.471,7.79108,7時間47分28秒,8時間12分32秒
上白滝,43.876501,143.1444,unknown,170.342,8.05257,8時間3分9秒,7時間56分51秒
白滝,43.884435,143.180795,eco,173.296,8.08130,8時間4分53秒,7時間55分7秒
旧白滝,43.919905,143.236729,unknown,179.170,8.13840,8時間8分18秒,7時間51分42秒
下白滝,43.944553,143.276088,unknown,183.288,8.17842,8時間10分42秒,7時間49分18秒
丸瀬布,44.006354,143.335817,cool,190.978,8.25311,8時間15分11秒,7時間44分49秒
瀬戸瀬,44.008753,143.420937,cool,196.900,8.31059,8時間18分38秒,7時間41分22秒
遠軽,44.060278,143.520667,cool,206.691,8.40555,8時間24分20秒,7時間35分40秒
安国,43.993322,143.535762,cool,203.951,8.37899,8時間22分44秒,7時間37分16秒
生野(北海道),43.959928,143.532945,unknown,201.949,8.35957,8時間21分34秒,7時間38分26秒
生田原,43.923674,143.534627,cool,200.168,8.34230,8時間20分32秒,7時間39分28秒
金華,43.803484,143.57114,unknown,197.015,8.31171,8時間18分42秒,7時間41分18秒
西留辺蘂,43.785345,143.603257,cool,198.585,8.32694,8時間19分37秒,7時間40分23秒
留辺蘂,43.785534,143.621394,cool,199.935,8.34004,8時間20分24秒,7時間39分36秒
相内,43.795948,143.756449,cool,210.408,8.44157,8時間26分30秒,7時間33分30秒
東相内,43.805466,143.809499,cool,214.755,8.48368,8時間29分1秒,7時間30分59秒
西北見,43.803114,143.841586,cool,217.057,8.50597,8時間30分21秒,7時間29分39秒
北見,43.805504,143.898167,cool,221.390,8.54790,8時間32分52秒,7時間27分8秒
柏陽,43.824911,143.916737,cool,223.555,8.56884,8時間34分8秒,7時間25分52秒
愛し野,43.841426,143.932962,cool,225.436,8.58703,8時間35分13秒,7時間24分47秒
端野,43.851172,143.942336,cool,226.534,8.59765,8時間35分52秒,7時間24分8秒
緋牛内,43.880431,143.999887,cool,232.027,8.65073,8時間39分3秒,7時間20分57秒
美幌,43.836967,144.10563,cool,238.208,8.71040,8時間42分37秒,7時間17分23秒
西女満別,43.880057,144.148372,cool,243.093,8.75752,8時間45分27秒,7時間14分33秒
女満別,43.915886,144.170665,cool,246.197,8.78744,8時間47分15秒,7時間12分45秒
呼人,43.963695,144.218945,cool,251.767,8.84109,8時間50分28秒,7時間9分32秒
網走,44.019873,144.254156,cool,256.785,8.88937,8時間53分22秒,7時間6分38秒
桂台,44.016913,144.273223,heat,258.057,8.90160,8時間54分6秒,7時間5分54秒
鱒浦,43.982481,144.296526,heat,258.305,8.90399,8時間54分14秒,7時間5分46秒
藻琴,43.968358,144.320079,heat,259.468,8.91517,8時間54分55秒,7時間5分5秒
北浜(北海道),43.958549,144.352541,heat,261.488,8.93458,8時間56分4秒,7時間3分56秒
原生花園,43.941033,144.41443,heat,265.429,8.97243,8時間58分21秒,7時間1分39秒
浜小清水,43.934077,144.453187,cool,268.075,8.99783,8時間59分52秒,7時間0分8秒
止別,43.921558,144.519818,cool,272.634,9.04155,9時間2分30秒,6時間57分30秒
知床斜里,43.910749,144.661647,cool,283.009,9.14089,9時間8分27秒,6時間51分33秒
中斜里,43.874608,144.659033,cool,281.581,9.12723,9時間7分38秒,6時間52分22秒
南斜里,43.867531,144.63431,unknown,279.455,9.10688,9時間6分25秒,6時間53分35秒
清里町,43.83871,144.593948,cool,275.415,9.06820,9時間4分6秒,6時間55分54秒
札弦,43.786574,144.531526,cool,268.960,9.00632,9時間0分23秒,6時間59分37秒
緑,43.718282,144.505499,eco,264.922,8.96756,8時間58分3秒,7時間1分57秒
川湯温泉,43.616258,144.457749,eco,258.512,8.90598,8時間54分22秒,7時間5分38秒
美留和,43.555316,144.437656,eco,255.536,8.87736,8時間52分38秒,7時間7分22秒
摩周,43.487373,144.463981,eco,256.276,8.88447,8時間53分4秒,7時間6分56秒
南弟子屈,43.428656,144.514729,unknown,259.350,8.91403,8時間54分51秒,7時間5分9秒
磯分内,43.379389,144.554322,eco,261.844,8.93800,8時間56分17秒,7時間3分43秒
標茶,43.298472,144.608434,eco,265.346,8.97163,8時間58分18秒,7時間1分42秒
五十石,43.238771,144.545558,unknown,259.832,8.91866,8時間55分7秒,7時間4分53秒
茅沼,43.202097,144.503788,cool,256.262,8.88434,8時間53分4秒,7時間6分56秒
塘路,43.151739,144.496817,eco,255.538,8.87738,8時間52分39秒,7時間7分21秒
細岡,43.105055,144.469683,eco,253.298,8.85582,8時間51分21秒,7時間8分39秒
釧路湿原,43.100647,144.447799,eco,251.523,8.83874,8時間50分19秒,7時間9分41秒
遠矢,43.047878,144.458367,eco,252.475,8.84790,8時間50分52秒,7時間9分8秒
中小国,41.051702,140.596798,cool,232.745,8.65766,8時間39分28秒,7時間20分32秒
津軽二股,41.145937,140.514231,eco,224.650,8.57943,8時間34分46秒,7時間25分14秒
竜飛海底,41.257228,140.347946,unknown,217.712,8.51231,8時間30分44秒,7時間29分16秒
知内,41.601092,140.33494,unknown,183.299,8.17853,8時間10分43秒,7時間49分17秒
木古内,41.677642,140.434004,eco,172.026,8.06895,8時間4分8秒,7時間55分52秒
江差,41.856727,140.127933,unknown,167.987,8.02967,8時間1分47秒,7時間58分13秒
上ノ国,41.805567,140.124106,unknown,172.790,8.07638,8時間4分35秒,7時間55分25秒
中須田,41.787214,140.149321,unknown,173.275,8.08110,8時間4分52秒,7時間55分8秒
桂岡,41.773096,140.166071,unknown,173.802,8.08622,8時間5分10秒,7時間54分50秒
宮越,41.762404,140.184998,unknown,173.933,8.08749,8時間5分15秒,7時間54分45秒
湯ノ岱,41.750312,140.243698,unknown,172.476,8.07333,8時間4分24秒,7時間55分36秒
神明(北海道),41.734481,140.265709,unknown,173.043,8.07884,8時間4分44秒,7時間55分16秒
吉堀,41.684059,140.379226,unknown,173.407,8.08238,8時間4分57秒,7時間55分3秒
渡島鶴岡,41.671014,140.41137,unknown,173.510,8.08338,8時間5分0秒,7時間55分0秒
札苅,41.699271,140.468097,eco,168.639,8.03601,8時間2分10秒,7時間57分50秒
泉沢,41.700867,140.506797,eco,167.136,8.02139,8時間1分17秒,7時間58分43秒
釜谷,41.712153,140.53718,eco,164.966,8.00028,8時間0分1秒,7時間59分59秒
渡島当別,41.737309,140.579109,eco,161.021,7.96190,7時間57分43秒,8時間2分17秒
茂辺地,41.766604,140.600561,eco,157.329,7.92597,7時間55分34秒,8時間4分26秒
上磯,41.81956,140.640599,eco,150.616,7.86064,7時間51分38秒,8時間8分22秒
清川口,41.824615,140.652906,eco,149.708,7.85180,7時間51分6秒,8時間8分54秒
久根別,41.826727,140.666468,eco,149.068,7.84557,7時間50分44秒,8時間9分16秒
東久根別,41.826005,140.679731,eco,148.736,7.84234,7時間50分32秒,8時間9分28秒
七重浜,41.817643,140.707957,eco,148.765,7.84262,7時間50分33秒,8時間9分27秒
八戸,40.5092,141.431499,eco,284.672,9.15679,9時間9分24秒,6時間50分36秒
新庄,38.76256,140.306064,eco,486.779,11.02436,11時間1分28秒,4時間58分32秒
泉田,38.811758,140.310039,eco,481.333,10.97617,10時間58分34秒,5時間1分26秒
羽前豊里,38.836748,140.242247,eco,479.669,10.96142,10時間57分41秒,5時間2分19秒
真室川,38.858243,140.254814,heat,477.117,10.93877,10時間56分20秒,5時間3分40秒
釜淵,38.93281,140.263864,heat,468.826,10.86497,10時間51分54秒,5時間8分6秒
大滝,38.971485,140.320199,cool,463.700,10.81919,10時間49分9秒,5時間10分51秒
及位,38.992983,140.361164,cool,460.718,10.79250,10時間47分33秒,5時間12分27秒
院内,39.049706,140.4138,heat,453.725,10.72975,10時間43分47秒,5時間16分13秒
横堀,39.064533,140.45131,heat,451.565,10.71033,10時間42分37秒,5時間17分23秒
三関,39.110196,140.483796,heat,446.105,10.66113,10時間39分40秒,5時間20分20秒
上湯沢,39.134221,140.485262,heat,443.447,10.63714,10時間38分14秒,5時間21分46秒
湯沢,39.163443,140.487011,heat,440.215,10.60792,10時間36分29秒,5時間23分31秒
下湯沢,39.197196,140.50249,heat,436.297,10.57244,10時間34分21秒,5時間25分39秒
十文字,39.221186,140.526287,heat,433.342,10.54564,10時間32分44秒,5時間27分16秒
醍醐(秋田),39.248716,140.53853,heat,430.155,10.51669,10時間31分0秒,5時間29分0秒
柳田(秋田),39.276385,140.553856,heat,426.913,10.48720,10時間29分14秒,5時間30分46秒
横手,39.310146,140.5604,heat,423.117,10.45261,10時間27分9秒,5時間32分51秒
後三年,39.364891,140.538397,heat,417.396,10.40038,10時間24分1秒,5時間35分59秒
飯詰,39.406013,140.515378,heat,413.203,10.36202,10時間21分43秒,5時間38分17秒
大曲(秋田),39.465712,140.479628,heat,407.179,10.30677,10時間18分24秒,5時間41分36秒
神宮寺,39.494841,140.426518,heat,404.812,10.28503,10時間17分6秒,5時間42分54秒
刈和野,39.547646,140.372402,heat,399.942,10.24022,10時間14分25秒,5時間45分35秒
峰吉川,39.566586,140.32314,heat,398.743,10.22918,10時間13分45秒,5時間46分15秒
羽後境,39.618679,140.320722,heat,393.125,10.17736,10時間10分38秒,5時間49分22秒
大張野,39.663347,140.274071,heat,389.153,10.14064,10時間8分26秒,5時間51分34秒
和田,39.65087,140.218754,heat,391.592,10.16319,10時間9分47秒,5時間50分13秒
四ツ小屋,39.661341,140.144946,heat,391.995,10.16692,10時間10分1秒,5時間49分59秒
秋田,39.716748,140.129931,heat,386.360,10.11480,10時間6分53秒,5時間53分7秒
泉外旭川,39.738358,140.112283,heat,384.431,10.09693,10時間5分49秒,5時間54分11秒
土崎,39.758453,140.073601,heat,383.158,10.08513,10時間5分6秒,5時間54分54秒
上飯島,39.779336,140.06847,eco,381.043,10.06551,10時間3分56秒,5時間56分4秒
追分(秋田),39.809925,140.05781,cool,378.025,10.03749,10時間2分15秒,5時間57分45秒
大久保(秋田),39.87089,140.063079,eco,371.391,9.97579,9時間58分33秒,6時間1分27秒
羽後飯塚,39.898981,140.0733,eco,368.148,9.94557,9時間56分44秒,6時間3分16秒
井川さくら,39.911925,140.076022,eco,366.702,9.93209,9時間55分56秒,6時間4分4秒
八郎潟,39.947366,140.078382,eco,362.866,9.89628,9時間53分47秒,6時間6分13秒
鯉川,39.996361,140.077474,eco,357.669,9.84769,9時間50分52秒,6時間9分8秒
鹿渡,40.044619,140.082621,eco,352.408,9.79841,9時間47分54秒,6時間12分6秒
森岳,40.103164,140.070886,eco,346.486,9.74284,9時間44分34秒,6時間15分26秒
北金岡,40.141895,140.063565,eco,342.570,9.70603,9時間42分22秒,6時間17分38秒
東能代,40.191579,140.065746,heat,337.256,9.65600,9時間39分22秒,6時間20分38秒
鶴形,40.203879,140.118507,cool,334.589,9.63086,9時間37分51秒,6時間22分9秒
富根,40.217956,140.172643,cool,331.741,9.60400,9時間36分14秒,6時間23分46秒
二ツ井,40.212506,140.235729,cool,330.816,9.59527,9時間35分43秒,6時間24分17秒
前山,40.214785,140.312378,cool,328.845,9.57665,9時間34分36秒,6時間25分24秒
鷹ノ巣(鷹巣),40.232059,140.369816,cool,325.764,9.54754,9時間32分51秒,6時間27分9秒
糠沢,40.251094,140.397827,cool,323.134,9.52266,9時間31分22秒,6時間28分38秒
早口,40.271315,140.447572,cool,319.958,9.49259,9時間29分33秒,6時間30分27秒
下川沿,40.276408,140.496625,cool,318.476,9.47855,9時間28分43秒,6時間31分17秒
大館,40.288122,140.555946,cool,316.140,9.45641,9時間27分23秒,6時間32分37秒
白沢(秋田),40.338103,140.591657,cool,310.086,9.39896,9時間23分56秒,6時間36分4秒
陣場,40.398864,140.607523,cool,303.197,9.33347,9時間20分1秒,6時間39分59秒
津軽湯の沢,40.441879,140.632055,heat,298.098,9.28492,9時間17分6秒,6時間42分54秒
碇ヶ関,40.478988,140.622443,heat,294.215,9.24791,9時間14分52秒,6時間45分8秒
長峰,40.516072,140.603069,heat,290.516,9.21261,9時間12分45秒,6時間47分15秒
大鰐温泉,40.52154,140.566914,heat,290.576,9.21319,9時間12分47秒,6時間47分13秒
大鰐,40.52182,140.566822,heat,290.548,9.21292,9時間12分47秒,6時間47分13秒
石川(JR),40.556021,140.530951,heat,287.526,9.18406,9時間11分3秒,6時間48分57秒
弘前,40.599723,140.485016,eco,283.739,9.14787,9時間8分52秒,6時間51分8秒
撫牛子,40.621298,140.497616,heat,281.151,9.12311,9時間7分23秒,6時間52分37秒
川部,40.646862,140.521376,eco,277.904,9.09204,9時間5分31秒,6時間54分29秒
北常盤,40.67053,140.54359,eco,274.899,9.06325,9時間3分48秒,6時間56分12秒
浪岡,40.71021,140.580664,eco,269.875,9.01509,9時間0分54秒,6時間59分6秒
大釈迦,40.756736,140.587776,eco,264.705,8.96548,8時間57分56秒,7時間2分4秒
鶴ヶ坂,40.791228,140.634878,cool,260.063,8.92088,8時間55分15秒,7時間4分45秒
津軽新城,40.828022,140.672025,cool,255.385,8.87590,8時間52分33秒,7時間7分27秒
新青森,40.82749,140.693449,cool,255.059,8.87277,8時間52分22秒,7時間7分38秒
青森,40.828668,140.734738,cool,254.225,8.86474,8時間51分53秒,7時間8分7秒
野辺地,40.855142,141.119603,cool,246.867,8.79390,8時間47分38秒,7時間12分22秒
北野辺地,40.871077,141.134115,cool,245.010,8.77600,8時間46分34秒,7時間13分26秒
有戸,40.913949,141.189264,cool,239.959,8.72730,8時間43分38秒,7時間16分22秒
吹越,41.022038,141.246552,cool,227.731,8.60922,8時間36分33秒,7時間23分27秒
陸奥横浜,41.086544,141.249757,cool,220.553,8.53980,8時間32分23秒,7時間27分37秒
有畑,41.131818,141.276421,eco,215.449,8.49040,8時間29分25秒,7時間30分35秒
近川,41.191687,141.279021,eco,208.788,8.42588,8時間25分33秒,7時間34分27秒
金谷沢,41.228854,141.248432,eco,204.746,8.38670,8時間23分12秒,7時間36分48秒
赤川,41.267829,141.209339,heat,200.577,8.34627,8時間20分47秒,7時間39分13秒
下北,41.28288,141.18989,heat,199.006,8.33103,8時間19分52秒,7時間40分8秒
大湊,41.280344,141.161772,heat,199.455,8.33538,8時間20分7秒,7時間39分53秒
能代,40.206577,140.033084,heat,336.543,9.64928,9時間38分57秒,6時間21分3秒
向能代,40.225669,140.039111,heat,334.368,9.62878,9時間37分44秒,6時間22分16秒
北能代,40.254138,140.033835,heat,331.513,9.60185,9時間36分7秒,6時間23分53秒
鳥形,40.271433,140.036931,heat,329.609,9.58387,9時間35分2秒,6時間24分58秒
沢目,40.295929,140.037824,heat,327.008,9.55930,9時間33分33秒,6時間26分27秒
東八森,40.332086,140.032462,cool,323.361,9.52481,9時間31分29秒,6時間28分31秒
八森,40.37135,140.017882,cool,319.661,9.48978,9時間29分23秒,6時間30分37秒
滝ノ間,40.379967,140.00221,cool,319.213,9.48554,9時間29分8秒,6時間30分52秒
あきた白神,40.386583,139.987793,eco,318.944,9.48299,9時間28分59秒,6時間31分1秒
岩館,40.406241,139.966258,eco,317.537,9.46966,9時間28分11秒,6時間31分49秒
大間越,40.492407,139.950062,cool,309.098,9.38958,9時間23分22秒,6時間36分38秒
白神岳登山口,40.513551,139.950318,cool,306.905,9.36874,9時間22分7秒,6時間37分53秒
松神,40.534902,139.946556,cool,304.820,9.34891,9時間20分56秒,6時間39分4秒
十二湖,40.551539,139.941986,cool,303.251,9.33399,9時間20分2秒,6時間39分58秒
陸奥岩崎,40.583333,139.924183,cool,300.557,9.30834,9時間18分30秒,6時間41分30秒
陸奥沢辺,40.586175,139.894991,cool,301.225,9.31470,9時間18分53秒,6時間41分7秒
ウェスパ椿山,40.592913,139.871157,cool,301.334,9.31574,9時間18分57秒,6時間41分3秒
艫作,40.608534,139.864856,cool,299.956,9.30262,9時間18分9秒,6時間41分51秒
横磯,40.629891,139.89091,cool,296.898,9.27349,9時間16分25秒,6時間43分35秒
深浦,40.650239,139.929372,cool,293.534,9.24141,9時間14分29秒,6時間45分31秒
広戸,40.67434,139.955586,cool,290.202,9.20962,9時間12分35秒,6時間47分25秒
追良瀬,40.686114,139.970298,cool,288.513,9.19349,9時間11分37秒,6時間48分23秒
驫木,40.707218,139.982954,cool,285.936,9.16887,9時間10分8秒,6時間49分52秒
風合瀬,40.731826,139.99432,cool,283.043,9.14121,9時間8分28秒,6時間51分32秒
大戸瀬,40.759325,140.033596,cool,278.944,9.10199,9時間6分7秒,6時間53分53秒
千畳敷,40.767769,140.054832,cool,277.393,9.08714,9時間5分14秒,6時間54分46秒
北金ヶ沢,40.745995,140.095052,cool,278.376,9.09655,9時間5分48秒,6時間54分12秒
陸奥柳田,40.740616,140.123243,heat,278.072,9.09364,9時間5分37秒,6時間54分23秒
陸奥赤石,40.76156,140.162057,heat,274.734,9.06167,9時間3分42秒,6時間56分18秒
鰺ヶ沢,40.775255,140.220589,heat,271.605,9.03168,9時間1分54秒,6時間58分6秒
鳴沢,40.782189,140.267617,heat,269.562,9.01209,9時間0分44秒,6時間59分16秒
越水,40.787258,140.298628,heat,268.186,8.99889,8時間59分56秒,7時間0分4秒
陸奥森田,40.781738,140.339033,heat,267.704,8.99427,8時間59分39秒,7時間0分21秒
中田(青森),40.787424,140.364505,heat,266.450,8.98223,8時間58分56秒,7時間1分4秒
木造,40.802482,140.387775,eco,264.267,8.96127,8時間57分41秒,7時間2分19秒
五所川原,40.809124,140.44776,eco,262.106,8.94052,8時間56分26秒,7時間3分34秒
津軽五所川原,40.809684,140.448489,eco,262.029,8.93978,8時間56分23秒,7時間3分37秒
陸奥鶴田,40.757544,140.435276,eco,267.907,8.99621,8時間59分46秒,7時間0分14秒
鶴泊,40.736026,140.437616,eco,270.152,9.01775,9時間1分4秒,6時間58分56秒
板柳,40.69726,140.461785,eco,273.755,9.05229,9時間3分8秒,6時間56分52秒
林崎,40.675355,140.480401,eco,275.699,9.07092,9時間4分15秒,6時間55分45秒
藤崎(青森),40.654047,140.499531,eco,277.583,9.08896,9時間5分20秒,6時間54分40秒
油川,40.857035,140.690476,cool,251.901,8.84238,8時間50分33秒,7時間9分27秒
津軽宮田,40.887184,140.674579,cool,248.918,8.81365,8時間48分49秒,7時間11分11秒
奥内,40.903044,140.672382,cool,247.239,8.79748,8時間47分51秒,7時間12分9秒
左堰,40.917214,140.665929,cool,245.826,8.78386,8時間47分2秒,7時間12分58秒
後潟,40.931519,140.662734,heat,244.338,8.76952,8時間46分10秒,7時間13分50秒
中沢,40.949044,140.656244,heat,242.568,8.75246,8時間45分9秒,7時間14分51秒
蓬田,40.969042,140.654533,heat,240.439,8.73193,8時間43分55秒,7時間16分5秒
郷沢,40.987682,140.652399,heat,238.468,8.71291,8時間42分46秒,7時間17分14秒
瀬辺地,41.007869,140.648179,heat,236.373,8.69269,8時間41分34秒,7時間18分26秒
蟹田,41.038274,140.642565,eco,233.210,8.66215,8時間39分44秒,7時間20分16秒
大平,41.065866,140.559375,eco,232.076,8.65120,8時間39分4秒,7時間20分56秒
大川平,41.163204,140.507592,eco,222.991,8.56339,8時間33分48秒,7時間26分12秒
今別,41.179741,140.490448,eco,221.690,8.55080,8時間33分3秒,7時間26分57秒
津軽浜名,41.180521,140.47185,eco,222.103,8.55480,8時間33分17秒,7時間26分43秒
三厩,41.185404,140.444482,eco,222.338,8.55707,8時間33分25秒,7時間26分35秒
長苗代,40.52146,141.465907,eco,283.391,9.14454,9時間8分40秒,6時間51分20秒
本八戸,40.516286,141.488762,eco,284.036,9.15071,9時間9分3秒,6時間50分57秒
小中野,40.518767,141.510032,eco,283.837,9.14880,9時間8分56秒,6時間51分4秒
陸奥湊,40.52335,141.527652,eco,283.400,9.14462,9時間8分41秒,6時間51分19秒
白銀,40.522031,141.541648,eco,283.608,9.14661,9時間8分48秒,6時間51分12秒
鮫,40.530244,141.554891,heat,282.760,9.13850,9時間8分19秒,6時間51分41秒
陸奥白浜,40.516636,141.592299,heat,284.472,9.15487,9時間9分18秒,6時間50分42秒
種差海岸,40.506951,141.607367,heat,285.637,9.16601,9時間9分58秒,6時間50分2秒
大久喜,40.495135,141.622958,cool,287.046,9.17947,9時間10分46秒,6時間49分14秒
金浜,40.475994,141.637366,cool,289.263,9.20065,9時間12分2秒,6時間47分58秒
大蛇,40.467251,141.650773,cool,290.326,9.21080,9時間12分39秒,6時間47分21秒
階上,40.456834,141.664958,cool,291.583,9.22280,9時間13分22秒,6時間46分38秒
角の浜,40.444478,141.681773,cool,293.079,9.23707,9時間14分13秒,6時間45分47秒
平内,40.42552,141.699272,cool,295.316,9.25841,9時間15分30秒,6時間44分30秒
種市,40.410384,141.715232,cool,297.123,9.27563,9時間16分32秒,6時間43分28秒
玉川(岩手),40.380424,141.735117,cool,300.609,9.30884,9時間18分32秒,6時間41分28秒
宿戸,40.366129,141.746683,cool,302.293,9.32487,9時間19分30秒,6時間40分30秒
陸中八木,40.345485,141.766517,cool,304.757,9.34831,9時間20分54秒,6時間39分6秒
有家,40.324007,141.773031,eco,307.192,9.37147,9時間22分17秒,6時間37分43秒
陸中中野,40.305165,141.787768,eco,309.415,9.39259,9時間23分33秒,6時間36分27秒
侍浜,40.261375,141.760575,eco,314.000,9.43612,9時間26分10秒,6時間33分50秒
陸中夏井,40.207747,141.791906,heat,320.218,9.49506,9時間29分42秒,6時間30分18秒
久慈,40.190391,141.770891,heat,321.941,9.51137,9時間30分41秒,6時間29分19秒
茂市,39.620619,141.799288,cool,385.221,10.10425,10時間6分15秒,5時間53分45秒
岩手刈屋,39.642688,141.759296,unknown,382.467,10.07872,10時間4分43秒,5時間55分17秒
中里(岩手),39.661836,141.736067,unknown,380.177,10.05747,10時間3分27秒,5時間56分33秒
岩手和井内,39.679905,141.715705,unknown,378.034,10.03758,10時間2分15秒,5時間57分45秒
押角,39.724029,141.693181,unknown,372.995,9.99072,9時間59分27秒,6時間0分33秒
岩手大川,39.800208,141.671909,unknown,364.414,9.91073,9時間54分39秒,6時間5分21秒
浅内,39.819482,141.727016,unknown,362.644,9.89420,9時間53分39秒,6時間6分21秒
二升石,39.836739,141.745741,unknown,360.871,9.87764,9時間52分39秒,6時間7分21秒
岩泉,39.845044,141.786446,unknown,360.277,9.87208,9時間52分19秒,6時間7分41秒
一ノ関,38.926514,141.138177,cool,460.925,10.79435,10時間47分40秒,5時間12分20秒
真滝,38.908239,141.17793,cool,462.839,10.81149,10時間48分41秒,5時間11分19秒
陸中門崎,38.916908,141.251226,cool,461.724,10.80151,10時間48分5秒,5時間11分55秒
岩ノ下,38.947699,141.245342,cool,458.310,10.77092,10時間46分15秒,5時間13分45秒
陸中松川,38.977237,141.238046,cool,455.038,10.74155,10時間44分30秒,5時間15分30秒
猊鼻渓,38.988939,141.25327,cool,453.713,10.72964,10時間43分47秒,5時間16分13秒
柴宿,38.996719,141.272312,cool,452.822,10.72163,10時間43分18秒,5時間16分42秒
摺沢,38.996016,141.321151,cool,452.859,10.72197,10時間43分19秒,5時間16分41秒
千厩,38.924873,141.34563,cool,460.763,10.79290,10時間47分34秒,5時間12分26秒
小梨,38.932493,141.38418,cool,459.924,10.78539,10時間47分7秒,5時間12分53秒
矢越,38.935224,141.429029,cool,459.659,10.78301,10時間46分59秒,5時間13分1秒
折壁,38.939428,141.452346,cool,459.223,10.77910,10時間46分45秒,5時間13分15秒
新月,38.915598,141.488796,cool,461.939,10.80343,10時間48分12秒,5時間11分48秒
気仙沼,38.910031,141.558893,eco,462.742,10.81062,10時間48分38秒,5時間11分22秒
鹿折唐桑,38.915928,141.579468,unknown,462.156,10.80537,10時間48分19秒,5時間11分41秒
上鹿折,38.960163,141.566825,unknown,457.198,10.76094,10時間45分39秒,5時間14分21秒
陸前矢作,39.022654,141.579456,unknown,450.298,10.69892,10時間41分56秒,5時間18分4秒
竹駒,39.033908,141.609486,unknown,449.162,10.68869,10時間41分19秒,5時間18分41秒
陸前高田,39.014915,141.629227,unknown,451.354,10.70843,10時間42分30秒,5時間17分30秒
脇ノ沢,39.011884,141.671754,unknown,451.889,10.71324,10時間42分48秒,5時間17分12秒
小友,38.989303,141.699506,unknown,454.539,10.73707,10時間44分13秒,5時間15分47秒
細浦,39.016025,141.713726,unknown,451.653,10.71112,10時間42分40秒,5時間17分20秒
下船渡,39.038328,141.720863,unknown,449.219,10.68921,10時間41分21秒,5時間18分39秒
大船渡,39.063546,141.720803,unknown,446.421,10.66398,10時間39分50秒,5時間20分10秒
盛,39.086372,141.710734,eco,443.830,10.64060,10時間38分26秒,5時間21分34秒
花巻,39.393182,141.110458,cool,409.182,10.32516,10時間19分31秒,5時間40分29秒
似内,39.406819,141.140889,cool,407.550,10.31018,10時間18分37秒,5時間41分23秒
新花巻,39.405839,141.17302,cool,407.553,10.31021,10時間18分37秒,5時間41分23秒
小山田,39.4086,141.193999,cool,407.186,10.30684,10時間18分25秒,5時間41分35秒
土沢,39.383381,141.232488,cool,409.898,10.33173,10時間19分54秒,5時間40分6秒
晴山,39.366617,141.257892,cool,411.716,10.34839,10時間20分54秒,5時間39分6秒
岩根橋,39.355264,141.318795,cool,412.914,10.35937,10時間21分34秒,5時間38分26秒
宮守,39.351066,141.350271,cool,413.372,10.36356,10時間21分49秒,5時間38分11秒
柏木平,39.30606,141.379862,cool,418.384,10.40941,10時間24分34秒,5時間35分26秒
鱒沢,39.300158,141.399252,cool,419.053,10.41552,10時間24分56秒,5時間35分4秒
荒谷前,39.309928,141.428507,cool,417.997,10.40587,10時間24分21秒,5時間35分39秒
岩手二日町,39.323441,141.45606,cool,416.537,10.39253,10時間23分33秒,5時間36分27秒
綾織,39.328422,141.476845,cool,416.024,10.38784,10時間23分16秒,5時間36分44秒
遠野,39.332529,141.53072,heat,415.706,10.38493,10時間23分6秒,5時間36分54秒
青笹,39.311482,141.568957,heat,418.172,10.40747,10時間24分27秒,5時間35分33秒
岩手上郷,39.284658,141.585834,heat,421.216,10.43527,10時間26分7秒,5時間33分53秒
平倉,39.264682,141.595661,heat,423.474,10.45587,10時間27分21秒,5時間32分39秒
足ヶ瀬,39.254766,141.645807,heat,424.798,10.46794,10時間28分5秒,5時間31分55秒
上有住,39.242013,141.681522,heat,426.397,10.48250,10時間28分57秒,5時間31分3秒
陸中大橋,39.280451,141.718436,eco,422.346,10.44558,10時間26分44秒,5時間33分16秒
洞泉,39.250671,141.760388,eco,425.917,10.47813,10時間28分41秒,5時間31分19秒
松倉,39.256458,141.801484,eco,425.566,10.47493,10時間28分30秒,5時間31分30秒
小佐野,39.264464,141.836515,eco,424.949,10.46931,10時間28分10秒,5時間31分50秒
釜石,39.273321,141.87267,eco,424.269,10.46312,10時間27分47秒,5時間32分13秒
北上,39.281196,141.121221,eco,421.579,10.43859,10時間26分19秒,5時間33分41秒
柳原(岩手),39.294597,141.111671,heat,420.128,10.42534,10時間25分31秒,5時間34分29秒
江釣子,39.298349,141.075749,heat,419.865,10.42294,10時間25分23秒,5時間34分37秒
藤根,39.301064,141.039571,heat,419.740,10.42180,10時間25分18秒,5時間34分42秒
立川目,39.307876,140.997144,heat,419.219,10.41704,10時間25分1秒,5時間34分59秒
横川目,39.309255,140.972143,eco,419.219,10.41704,10時間25分1秒,5時間34分59秒
岩沢,39.301016,140.931616,eco,420.402,10.42784,10時間25分40秒,5時間34分20秒
和賀仙人,39.308523,140.909485,eco,419.728,10.42169,10時間25分18秒,5時間34分42秒
ゆだ錦秋湖,39.295513,140.835343,cool,421.758,10.44022,10時間26分25秒,5時間33分35秒
ほっとゆだ,39.314493,140.775647,cool,420.200,10.42600,10時間25分34秒,5時間34分26秒
ゆだ高原,39.301074,140.737205,cool,422.062,10.44299,10時間26分35秒,5時間33分25秒
黒沢(JR),39.276243,140.699619,heat,425.195,10.47155,10時間28分18秒,5時間31分42秒
小松川,39.293403,140.646094,heat,423.901,10.45976,10時間27分35秒,5時間32分25秒
平石(秋田),39.291678,140.628457,unknown,424.299,10.46339,10時間27分48秒,5時間32分12秒
相野々,39.27805,140.619067,cool,425.912,10.47809,10時間28分41秒,5時間31分19秒
矢美津,39.291283,140.592099,unknown,424.786,10.46783,10時間28分4秒,5時間31分56秒
盛岡,39.701547,141.136599,heat,374.826,10.00776,10時間0分28秒,5時間59分32秒
前潟,39.713,141.101067,heat,373.707,9.99735,9時間59分50秒,6時間0分10秒
大釜,39.711586,141.072202,heat,374.006,10.00013,10時間0分0秒,6時間0分0秒
小岩井,39.709731,141.02465,eco,374.479,10.00453,10時間0分16秒,5時間59分44秒
雫石,39.689244,140.974762,eco,377.075,10.02867,10時間1分43秒,5時間58分17秒
春木場,39.693396,140.943954,cool,376.837,10.02645,10時間1分35秒,5時間58分25秒
赤渕,39.685112,140.907222,cool,378.042,10.03765,10時間2分16秒,5時間57分44秒
田沢湖,39.700363,140.722139,heat,378.183,10.03896,10時間2分20秒,5時間57分40秒
刺巻,39.668563,140.69196,heat,382.041,10.07477,10時間4分29秒,5時間55分31秒
神代(秋田),39.622667,140.627358,heat,387.896,10.12901,10時間7分44秒,5時間52分16秒
生田(秋田),39.612065,140.601203,heat,389.406,10.14298,10時間8分35秒,5時間51分25秒
角館,39.591716,140.570988,heat,392.052,10.16744,10時間10分3秒,5時間49分57秒
鶯野,39.568536,140.557901,heat,394.777,10.19261,10時間11分33秒,5時間48分27秒
羽後長野,39.546003,140.540448,cool,397.495,10.21768,10時間13分4秒,5時間46分56秒
鑓見内,39.519323,140.527744,cool,400.602,10.24630,10時間14分47秒,5時間45分13秒
羽後四ツ屋,39.501511,140.511886,cool,402.783,10.26637,10時間15分59秒,5時間44分1秒
北大曲,39.48944,140.497966,eco,404.309,10.28041,10時間16分49秒,5時間43分11秒
好摩,39.874037,141.173685,heat,355.527,9.82763,9時間49分39秒,6時間10分21秒
東大更,39.902621,141.142537,heat,352.469,9.79898,9時間47分56秒,6時間12分4秒
大更,39.913746,141.100808,heat,351.422,9.78916,9時間47分21秒,6時間12分39秒
平館,39.950886,141.08531,heat,347.379,9.75122,9時間45分4秒,6時間14分56秒
北森,39.956785,141.071652,heat,346.798,9.74577,9時間44分45秒,6時間15分15秒
松尾八幡平,39.969241,141.043903,heat,345.579,9.73431,9時間44分4秒,6時間15分56秒
安比高原,40.012587,140.997239,heat,341.085,9.69206,9時間41分31秒,6時間18分29秒
赤坂田,40.048464,141.00394,cool,337.062,9.65417,9時間39分15秒,6時間20分45秒
小屋の畑,40.076539,141.020673,cool,333.834,9.62374,9時間37分25秒,6時間22分35秒
荒屋新町,40.097682,141.049196,cool,331.302,9.59985,9時間35分59秒,6時間24分1秒
横間,40.107475,141.027151,eco,330.361,9.59097,9時間35分27秒,6時間24分33秒
田山,40.139674,140.944126,eco,327.432,9.56330,9時間33分48秒,6時間26分12秒
兄畑,40.115869,140.88302,eco,330.625,9.59346,9時間35分36秒,6時間24分24秒
湯瀬温泉,40.122384,140.840292,cool,330.342,9.59079,9時間35分27秒,6時間24分33秒
八幡平,40.142881,140.804496,cool,328.479,9.57320,9時間34分24秒,6時間25分36秒
陸中大里,40.158574,140.793477,cool,326.879,9.55808,9時間33分29秒,6時間26分31秒
鹿角花輪,40.188453,140.785088,heat,323.689,9.52791,9時間31分40秒,6時間28分20秒
柴平,40.230751,140.787941,heat,319.000,9.48352,9時間29分1秒,6時間30分59秒
十和田南,40.256069,140.770716,heat,316.428,9.45914,9時間27分33秒,6時間32分27秒
末広,40.229788,140.737251,heat,319.750,9.49062,9時間29分26秒,6時間30分34秒
土深井,40.222452,140.713142,heat,320.880,9.50132,9時間30分5秒,6時間29分55秒
沢尻,40.230342,140.693288,heat,320.291,9.49575,9時間29分45秒,6時間30分15秒
十二所,40.21429,140.668211,heat,322.411,9.51582,9時間30分57秒,6時間29分3秒
大滝温泉,40.209751,140.639625,heat,323.333,9.52454,9時間31分28秒,6時間28分32秒
扇田,40.229235,140.572472,eco,322.274,9.51452,9時間30分52秒,6時間29分8秒
東大館,40.266005,140.554745,eco,318.568,9.47943,9時間28分46秒,6時間31分14秒
上盛岡,39.71146,141.147937,heat,373.681,9.99711,9時間59分50秒,6時間0分10秒
山岸,39.71596,141.171401,heat,373.098,9.99168,9時間59分30秒,6時間0分30秒
上米内,39.743855,141.203825,heat,369.899,9.96189,9時間57分43秒,6時間2分17秒
大志田,39.741806,141.280843,unknown,369.970,9.96255,9時間57分45秒,6時間2分15秒
浅岸,39.711208,141.339147,unknown,373.328,9.99382,9時間59分38秒,6時間0分22秒
区界,39.65177,141.351352,heat,379.935,10.05523,10時間3分19秒,5時間56分41秒
松草,39.635918,141.437421,heat,381.767,10.07223,10時間4分20秒,5時間55分40秒
平津戸,39.623408,141.511222,unknown,383.323,10.08666,10時間5分12秒,5時間54分48秒
川内(岩手),39.640744,141.597548,heat,381.717,10.07176,10時間4分18秒,5時間55分42秒
箱石,39.617115,141.625829,heat,384.475,10.09734,10時間5分50秒,5時間54分10秒
陸中川井,39.597397,141.68153,heat,386.967,10.12042,10時間7分13秒,5時間52分47秒
腹帯,39.604539,141.767434,heat,386.753,10.11844,10時間7分6秒,5時間52分54秒
蟇目,39.629341,141.838876,heat,384.592,10.09842,10時間5分54秒,5時間54分6秒
花原市,39.630233,141.861308,heat,384.696,10.09938,10時間5分58秒,5時間54分2秒
千徳,39.632251,141.9124,eco,384.968,10.10190,10時間6分7秒,5時間53分53秒
宮古,39.640287,141.946454,eco,384.438,10.09699,10時間5分49秒,5時間54分11秒
新津,37.800383,139.121445,cool,615.370,12.11662,12時間7分0秒,3時間53分0秒
京ヶ瀬,37.817616,139.178322,cool,612.080,12.08986,12時間5分24秒,3時間54分36秒
水原,37.836712,139.217237,cool,609.066,12.06529,12時間3分55秒,3時間56分5秒
神山,37.862586,139.244691,cool,605.623,12.03715,12時間2分14秒,3時間57分46秒
月岡(新潟),37.889334,139.272488,cool,602.081,12.00813,12時間0分29秒,3時間59分31秒
中浦,37.912202,139.302689,cool,598.899,11.98199,11時間58分55秒,4時間1分5秒
新発田,37.94412,139.335189,cool,594.700,11.94740,11時間56分51秒,4時間3分9秒
加治,37.976411,139.358535,cool,590.685,11.91423,11時間54分51秒,4時間5分9秒
金塚,38.020178,139.37949,cool,585.501,11.87126,11時間52分17秒,4時間7分43秒
中条,38.049342,139.397541,cool,581.950,11.84174,11時間50分30秒,4時間9分30秒
平木田,38.094338,139.427835,cool,576.413,11.79555,11時間47分44秒,4時間12分16秒
坂町,38.119277,139.445838,heat,573.317,11.76965,11時間46分11秒,4時間13分49秒
平林(新潟),38.150027,139.459045,heat,569.713,11.73942,11時間44分22秒,4時間15分38秒
岩船町,38.183564,139.459643,heat,566.109,11.70912,11時間42分33秒,4時間17分27秒
村上(新潟),38.219851,139.463306,heat,562.140,11.67567,11時間40分32秒,4時間19分28秒
間島,38.273078,139.450229,heat,556.764,11.63022,11時間37分49秒,4時間22分11秒
越後早川,38.316185,139.449887,heat,552.169,11.59124,11時間35分28秒,4時間24分32秒
桑川,38.375162,139.458838,eco,545.656,11.53579,11時間32分9秒,4時間27分51秒
今川(新潟),38.410081,139.468389,eco,541.696,11.50197,11時間30分7秒,4時間29分53秒
越後寒川,38.448689,139.489948,eco,537.048,11.46215,11時間27分44秒,4時間32分16秒
勝木,38.490315,139.517468,eco,531.933,11.41821,11時間25分6秒,4時間34分54秒
府屋,38.513324,139.530452,eco,529.160,11.39432,11時間23分40秒,4時間36分20秒
鼠ヶ関,38.555433,139.548827,eco,524.218,11.35166,11時間21分6秒,4時間38分54秒
小岩川,38.590399,139.56583,eco,520.071,11.31575,11時間18分57秒,4時間41分3秒
あつみ温泉,38.624217,139.587955,eco,515.925,11.27977,11時間16分47秒,4時間43分13秒
五十川,38.670658,139.616182,eco,510.283,11.23066,11時間13分50秒,4時間46分10秒
小波渡,38.692484,139.649836,eco,507.148,11.20330,11時間12分12秒,4時間47分48秒
三瀬,38.699448,139.673643,eco,505.842,11.19189,11時間11分31秒,4時間48分29秒
羽前水沢,38.713444,139.731372,eco,503.011,11.16713,11時間10分2秒,4時間49分58秒
羽前大山,38.742155,139.768194,eco,499.098,11.13283,11時間7分58秒,4時間52分2秒
鶴岡,38.74011,139.83538,eco,497.846,11.12184,11時間7分19秒,4時間52分41秒
藤島,38.768646,139.894087,eco,493.528,11.08388,11時間5分2秒,4時間54分58秒
西袋,38.811528,139.907754,eco,488.615,11.04057,11時間2分26秒,4時間57分34秒
余目,38.844321,139.911348,eco,485.001,11.00864,11時間0分31秒,4時間59分29秒
北余目,38.867538,139.908074,heat,482.565,10.98708,10時間59分13秒,5時間0分47秒
砂越,38.895195,139.907345,heat,479.597,10.96078,10時間57分39秒,5時間2分21秒
東酒田,38.907518,139.875495,heat,478.952,10.95506,10時間57分18秒,5時間2分42秒
酒田,38.922194,139.845987,heat,478.020,10.94679,10時間56分48秒,5時間3分12秒
本楯,38.968648,139.882081,heat,472.230,10.89531,10時間53分43秒,5時間6分17秒
南鳥海,38.98736,139.898662,cool,469.855,10.87415,10時間52分27秒,5時間7分33秒
遊佐,39.015943,139.905161,cool,466.638,10.84544,10時間50分44秒,5時間9分16秒
吹浦,39.069934,139.878762,cool,461.417,10.79876,10時間47分56秒,5時間12分4秒
女鹿,39.098807,139.880963,cool,458.267,10.77053,10時間46分14秒,5時間13分46秒
小砂川,39.137507,139.885692,eco,454.007,10.73229,10時間43分56秒,5時間16分4秒
上浜,39.164738,139.902823,eco,450.698,10.70252,10時間42分9秒,5時間17分51秒
象潟,39.2078,139.902205,eco,446.092,10.66102,10時間39分40秒,5時間20分20秒
金浦,39.256183,139.920662,eco,440.483,10.61034,10時間36分37秒,5時間23分23秒
仁賀保,39.28979,139.964596,eco,435.888,10.56873,10時間34分7秒,5時間25分53秒
西目,39.347536,140.018518,eco,428.494,10.50159,10時間30分6秒,5時間29分54秒
羽後本荘,39.386877,140.057632,eco,423.417,10.45535,10時間27分19秒,5時間32分41秒
羽後岩谷,39.442075,140.0906,eco,416.770,10.39466,10時間23分41秒,5時間36分19秒
折渡,39.476423,140.091097,eco,413.058,10.36069,10時間21分38秒,5時間38分22秒
羽後亀田,39.493884,140.063032,heat,411.783,10.34901,10時間20分56秒,5時間39分4秒
岩城みなと,39.545487,140.055122,heat,406.412,10.29973,10時間17分59秒,5時間42分1秒
道川,39.56054,140.057049,heat,404.752,10.28448,10時間17分4秒,5時間42分56秒
下浜,39.619678,140.064567,cool,398.237,10.22452,10時間13分28秒,5時間46分32秒
桂根,39.647566,140.066482,cool,395.202,10.19653,10時間11分48秒,5時間48分12秒
新屋(秋田),39.677493,140.087799,cool,391.511,10.16245,10時間9分45秒,5時間50分15秒
羽後牛島,39.695834,140.116467,cool,388.904,10.13834,10時間8分18秒,5時間51分42秒
出戸浜,39.844473,140.024374,cool,375.147,10.01074,10時間0分39秒,5時間59分21秒
上二田,39.869089,140.00409,cool,373.030,9.99105,9時間59分28秒,6時間0分32秒
二田,39.88174,139.987171,cool,372.113,9.98251,9時間58分57秒,6時間1分3秒
天王,39.898782,139.963609,heat,370.911,9.97132,9時間58分17秒,6時間1分43秒
船越,39.90473,139.946804,heat,370.720,9.96954,9時間58分10秒,6時間1分50秒
脇本,39.915172,139.902657,heat,370.794,9.97023,9時間58分13秒,6時間1分47秒
羽立,39.904569,139.86205,eco,373.022,9.99097,9時間59分28秒,6時間0分32秒
男鹿,39.884571,139.848647,eco,375.496,10.01399,10時間0分50秒,5時間59分10秒
福島(福島),37.754123,140.45968,heat,595.730,11.95590,11時間57分21秒,4時間2分39秒
笹木野,37.765926,140.425985,heat,594.795,11.94819,11時間56分53秒,4時間3分7秒
庭坂,37.771537,140.389847,heat,594.586,11.94646,11時間56分47秒,4時間3分13秒
赤岩,37.80567,140.335545,unknown,591.472,11.92074,11時間55分15秒,4時間4分45秒
板谷,37.811627,140.268815,eco,591.662,11.92231,11時間55分20秒,4時間4分40秒
峠,37.811935,140.236041,eco,592.063,11.92563,11時間55分32秒,4時間4分28秒
大沢(山形),37.839775,140.19801,eco,589.527,11.90465,11時間54分17秒,4時間5分43秒
関根,37.864592,140.146284,eco,587.544,11.88821,11時間53分18秒,4時間6分42秒
米沢,37.909478,140.128209,eco,582.892,11.84958,11時間50分58秒,4時間9分2秒
置賜,37.954093,140.142496,eco,577.790,11.80705,11時間48分25秒,4時間11分35秒
高畠,37.992314,140.15281,eco,573.448,11.77074,11時間46分15秒,4時間13分45秒
赤湯,38.047081,140.148978,eco,567.505,11.72087,11時間43分15秒,4時間16分45秒
中川(山形),38.093349,140.203553,eco,561.626,11.67133,11時間40分17秒,4時間19分43秒
羽前中山,38.124158,140.218318,heat,558.034,11.64097,11時間38分28秒,4時間21分32秒
かみのやま温泉,38.152259,140.27867,heat,554.099,11.60763,11時間36分27秒,4時間23分33秒
茂吉記念館前,38.171249,140.298167,heat,551.747,11.58766,11時間35分16秒,4時間24分44秒
蔵王,38.20592,140.303299,eco,547.869,11.55466,11時間33分17秒,4時間26分43秒
山形,38.248098,140.327253,eco,542.912,11.51236,11時間30分45秒,4時間29分15秒
北山形,38.265902,140.332658,eco,540.884,11.49502,11時間29分42秒,4時間30分18秒
羽前千歳,38.287313,140.342168,eco,538.404,11.47378,11時間28分26秒,4時間31分34秒
南出羽,38.302834,140.344692,heat,536.665,11.45887,11時間27分32秒,4時間32分28秒
漆山,38.314477,140.347661,heat,535.346,11.44755,11時間26分51秒,4時間33分9秒
高擶,38.330726,140.358832,heat,533.412,11.43093,11時間25分51秒,4時間34分9秒
天童南,38.342489,140.365853,heat,532.027,11.41901,11時間25分8秒,4時間34分52秒
天童,38.35989,140.369303,heat,530.068,11.40215,11時間24分8秒,4時間35分52秒
乱川,38.386554,140.374663,heat,527.067,11.37627,11時間22分35秒,4時間37分25秒
神町,38.412276,140.378389,heat,524.191,11.35142,11時間21分5秒,4時間38分55秒
さくらんぼ東根,38.42806,140.380677,heat,522.425,11.33614,11時間20分10秒,4時間39分50秒
東根,38.450863,140.384035,heat,519.875,11.31405,11時間18分51秒,4時間41分9秒
村山(山形),38.477078,140.386399,cool,516.962,11.28878,11時間17分20秒,4時間42分40秒
袖崎,38.548259,140.391295,cool,509.075,11.22013,11時間13分12秒,4時間46分48秒
大石田,38.595916,140.375349,cool,504.055,11.17626,11時間10分35秒,4時間49分25秒
北大石田,38.629487,140.371234,cool,500.426,11.14448,11時間8分40秒,4時間51分20秒
芦沢,38.655258,140.361016,cool,497.740,11.12091,11時間7分15秒,4時間52分45秒
舟形,38.691583,140.316157,cool,494.403,11.09158,11時間5分30秒,4時間54分30秒
仙台(JR),38.260027,140.882158,eco,536.146,11.45441,11時間27分16秒,4時間32分44秒
東照宮,38.277262,140.88682,eco,534.206,11.43775,11時間26分16秒,4時間33分44秒
北仙台,38.281594,140.869885,eco,533.832,11.43454,11時間26分4秒,4時間33分56秒
北山(宮城),38.285154,140.851876,eco,533.554,11.43215,11時間25分56秒,4時間34分4秒
東北福祉大前,38.280468,140.842683,eco,534.136,11.43715,11時間26分14秒,4時間33分46秒
国見(宮城),38.274783,140.8335,eco,534.828,11.44310,11時間26分35秒,4時間33分25秒
葛岡,38.268816,140.818583,eco,535.593,11.44967,11時間26分59秒,4時間33分1秒
陸前落合,38.273379,140.789896,heat,535.296,11.44712,11時間26分50秒,4時間33分10秒
愛子,38.272661,140.761517,heat,535.592,11.44966,11時間26分59秒,4時間33分1秒
陸前白沢,38.278117,140.702333,heat,535.473,11.44864,11時間26分55秒,4時間33分5秒
熊ヶ根,38.297947,140.680633,cool,533.469,11.43142,11時間25分53秒,4時間34分7秒
作並,38.317738,140.632467,cool,531.727,11.41643,11時間24分59秒,4時間35分1秒
奥新川,38.325953,140.594329,cool,531.194,11.41184,11時間24分43秒,4時間35分17秒
面白山高原,38.333071,140.49712,cool,531.454,11.41408,11時間24分51秒,4時間35分9秒
山寺,38.309561,140.434773,cool,534.778,11.44267,11時間26分34秒,4時間33分26秒
高瀬(山形),38.301677,140.396074,cool,536.126,11.45424,11時間27分15秒,4時間32分45秒
楯山,38.301632,140.370598,heat,536.457,11.45708,11時間27分25秒,4時間32分35秒
東金井,38.277058,140.302666,eco,540.065,11.48801,11時間29分17秒,4時間30分43秒
羽前山辺,38.294756,140.271571,eco,538.558,11.47510,11時間28分30秒,4時間31分30秒
羽前金沢,38.320837,140.270516,heat,535.712,11.45069,11時間27分2秒,4時間32分58秒
羽前長崎,38.332969,140.273018,heat,534.346,11.43896,11時間26分20秒,4時間33分40秒
南寒河江,38.356033,140.27767,cool,531.749,11.41662,11時間25分0秒,4時間35分0秒
寒河江,38.372548,140.274487,cool,529.983,11.40141,11時間24分5秒,4時間35分55秒
西寒河江,38.379627,140.26662,cool,529.321,11.39571,11時間23分45秒,4時間36分15秒
羽前高松,38.397494,140.248666,cool,527.626,11.38109,11時間22分52秒,4時間37分8秒
柴橋,38.380425,140.227695,cool,529.809,11.39992,11時間24分0秒,4時間36分0秒
左沢,38.382223,140.208132,cool,529.908,11.40077,11時間24分3秒,4時間35分57秒
南米沢,37.896043,140.108364,cool,584.662,11.86429,11時間51分51秒,4時間8分9秒
西米沢,37.917279,140.08481,cool,582.699,11.84797,11時間50分53秒,4時間9分7秒
成島(山形),37.94335,140.075584,cool,579.990,11.82541,11時間49分31秒,4時間10分29秒
中郡(山形),37.969109,140.067286,cool,577.303,11.80298,11時間48分11秒,4時間11分49秒
羽前小松,38.004721,140.048503,cool,573.710,11.77294,11時間46分23秒,4時間13分37秒
犬川,38.025333,140.052038,cool,571.401,11.75359,11時間45分13秒,4時間14分47秒
今泉,38.056697,140.04412,eco,568.103,11.72590,11時間43分33秒,4時間16分27秒
萩生,38.06182,140.004207,eco,568.207,11.72677,11時間43分36秒,4時間16分24秒
羽前椿,38.038636,139.994293,eco,570.904,11.74942,11時間44分58秒,4時間15分2秒
手ノ子,38.011766,139.961264,eco,574.399,11.77870,11時間46分43秒,4時間13分17秒
羽前沼沢,38.028698,139.872497,eco,574.135,11.77649,11時間46分35秒,4時間13分25秒
伊佐領,38.05105,139.822635,heat,572.637,11.76395,11時間45分50秒,4時間14分10秒
羽前松岡,38.045391,139.780445,heat,574.063,11.77589,11時間46分33秒,4時間13分27秒
小国,38.061422,139.750167,heat,572.922,11.76634,11時間45分59秒,4時間14分1秒
越後金丸,38.066474,139.663521,cool,574.144,11.77657,11時間46分36秒,4時間13分24秒
越後片貝,38.070712,139.62239,cool,574.558,11.78004,11時間46分48秒,4時間13分12秒
越後下関,38.090037,139.560024,heat,573.837,11.77400,11時間46分26秒,4時間13分34秒
越後大島,38.099721,139.518209,heat,573.736,11.77315,11時間46分23秒,4時間13分37秒
升形,38.751646,140.24423,cool,488.934,11.04339,11時間2分36秒,4時間57分24秒
羽前前波,38.747654,140.209525,cool,489.932,11.05219,11時間3分8秒,4時間56分52秒
津谷,38.737618,140.186375,cool,491.411,11.06523,11時間3分55秒,4時間56分5秒
古口,38.737129,140.14602,cool,492.150,11.07174,11時間4分18秒,4時間55分42秒
高屋,38.752567,140.070936,eco,491.807,11.06872,11時間4分7秒,4時間55分53秒
清川,38.790152,140.020761,eco,488.668,11.04104,11時間2分28秒,4時間57分32秒
狩川,38.79367,139.976777,eco,489.144,11.04524,11時間2分43秒,4時間57分17秒
南野,38.81813,139.944742,eco,487.141,11.02756,11時間1分39秒,4時間58分21秒
小牛田,38.541111,141.064355,eco,504.011,11.17588,11時間10分33秒,4時間49分27秒
北浦(宮城),38.55985,141.02305,eco,502.108,11.15922,11時間9分33秒,4時間50分27秒
陸前谷地,38.565152,140.999453,eco,501.632,11.15505,11時間9分18秒,4時間50分42秒
古川,38.571192,140.967876,eco,501.125,11.15060,11時間9分2秒,4時間50分58秒
塚目,38.572474,140.937093,eco,501.156,11.15088,11時間9分3秒,4時間50分57秒
西古川,38.578214,140.895416,eco,500.775,11.14754,11時間8分51秒,4時間51分9秒
東大崎,38.605627,140.897015,eco,497.725,11.12078,11時間7分15秒,4時間52分45秒
西大崎,38.629986,140.889638,eco,495.072,11.09746,11時間5分51秒,4時間54分9秒
岩出山,38.652508,140.871492,cool,492.697,11.07656,11時間4分36秒,4時間55分24秒
有備館,38.658135,140.86442,cool,492.122,11.07149,11時間4分17秒,4時間55分43秒
上野目,38.680563,140.859342,cool,489.672,11.04990,11時間3分0秒,4時間57分0秒
池月,38.708948,140.835732,cool,486.699,11.02365,11時間1分25秒,4時間58分35秒
川渡温泉,38.736834,140.779317,heat,484.056,11.00028,11時間0分1秒,4時間59分59秒
鳴子御殿湯,38.744612,140.737148,heat,483.560,10.99589,10時間59分45秒,5時間0分15秒
鳴子温泉,38.743193,140.715939,heat,483.910,10.99899,10時間59分56秒,5時間0分4秒
中山平温泉,38.726568,140.668103,heat,486.205,11.01928,11時間1分9秒,4時間58分51秒
堺田,38.73549,140.612902,eco,485.789,11.01561,11時間0分56秒,4時間59分4秒
赤倉温泉,38.730535,140.553647,heat,486.995,11.02627,11時間1分35秒,4時間58分25秒
立小路,38.742045,140.542678,heat,485.855,11.01619,11時間0分58秒,4時間59分2秒
最上,38.755959,140.517712,heat,484.620,11.00527,11時間0分19秒,4時間59分41秒
大堀,38.76592,140.475377,heat,484.050,11.00023,11時間0分1秒,4時間59分59秒
鵜杉,38.764962,140.453698,heat,484.435,11.00363,11時間0分13秒,4時間59分47秒
瀬見温泉,38.755192,140.419557,heat,485.962,11.01714,11時間1分2秒,4時間58分58秒
東長沢,38.718898,140.382195,heat,490.460,11.05685,11時間3分25秒,4時間56分35秒
長沢,38.709782,140.365969,heat,491.688,11.06767,11時間4分4秒,4時間55分56秒
南新庄,38.721629,140.316212,heat,491.110,11.06258,11時間3分45秒,4時間56分15秒
あおば通,38.260749,140.878514,eco,536.089,11.45392,11時間27分14秒,4時間32分46秒
仙台(仙台市交通局),38.259901,140.879928,eco,536.174,11.45465,11時間27分17秒,4時間32分43秒
榴ヶ岡,38.258792,140.893782,eco,536.212,11.45498,11時間27分18秒,4時間32分42秒
宮城野原,38.26115,140.905155,eco,535.883,11.45216,11時間27分8秒,4時間32分52秒
陸前原ノ町,38.266017,140.910638,eco,535.310,11.44724,11時間26分50秒,4時間33分10秒
苦竹,38.268722,140.918867,eco,534.963,11.44426,11時間26分39秒,4時間33分21秒
小鶴新田,38.273455,140.935446,eco,534.344,11.43894,11時間26分20秒,4時間33分40秒
福田町,38.274967,140.958252,eco,534.054,11.43645,11時間26分11秒,4時間33分49秒
陸前高砂,38.27344,140.967607,eco,534.175,11.43749,11時間26分15秒,4時間33分45秒
中野栄,38.280796,140.985236,eco,533.271,11.42972,11時間25分47秒,4時間34分13秒
多賀城,38.291656,141.005375,eco,531.970,11.41852,11時間25分7秒,4時間34分53秒
下馬,38.305833,141.014965,eco,530.352,11.40459,11時間24分17秒,4時間35分43秒
西塩釜,38.31194,141.018419,eco,529.658,11.39861,11時間23分55秒,4時間36分5秒
本塩釜,38.317715,141.022477,eco,528.999,11.39293,11時間23分35秒,4時間36分25秒
東塩釜,38.325572,141.031665,eco,528.086,11.38506,11時間23分6秒,4時間36分54秒
陸前浜田,38.350747,141.041818,heat,525.247,11.36055,11時間21分38秒,4時間38分22秒
松島海岸,38.368529,141.058523,heat,523.204,11.34288,11時間20分34秒,4時間39分26秒
高城町,38.382731,141.07344,heat,521.569,11.32873,11時間19分43秒,4時間40分17秒
手樽,38.38715,141.092846,heat,521.008,11.32387,11時間19分26秒,4時間40分34秒
陸前富山,38.386307,141.107208,heat,521.052,11.32425,11時間19分27秒,4時間40分33秒
陸前大塚,38.379078,141.12947,heat,521.785,11.33060,11時間19分50秒,4時間40分10秒
東名,38.375189,141.143978,heat,522.175,11.33398,11時間20分2秒,4時間39分58秒
野蒜,38.379071,141.15681,heat,521.709,11.32994,11時間19分48秒,4時間40分12秒
陸前小野,38.396018,141.174345,cool,519.781,11.31324,11時間18分48秒,4時間41分12秒
鹿妻,38.403315,141.190073,cool,518.934,11.30589,11時間18分21秒,4時間41分39秒
矢本,38.420432,141.209148,cool,516.991,11.28903,11時間17分21秒,4時間42分39秒
東矢本,38.427993,141.22216,cool,516.127,11.28153,11時間16分53秒,4時間43分7秒
陸前赤井,38.432442,141.238883,cool,515.605,11.27699,11時間16分37秒,4時間43分23秒
石巻あゆみ野,38.436111,141.259444,cool,515.168,11.27319,11時間16分23秒,4時間43分37秒
蛇田,38.438218,141.277652,cool,514.913,11.27097,11時間16分16秒,4時間43分44秒
陸前山下,38.437718,141.288868,cool,514.958,11.27136,11時間16分17秒,4時間43分43秒
石巻,38.43538,141.303553,cool,515.207,11.27353,11時間16分25秒,4時間43分35秒
上涌谷,38.549194,141.099473,eco,502.980,11.16685,11時間10分1秒,4時間49分59秒
涌谷,38.538151,141.127359,eco,504.115,11.17679,11時間10分36秒,4時間49分24秒
前谷地,38.512187,141.194345,eco,506.822,11.20046,11時間12分2秒,4時間47分58秒
佳景山,38.497974,141.239622,eco,508.318,11.21352,11時間12分49秒,4時間47分11秒
鹿又,38.485851,141.283016,eco,509.612,11.22481,11時間13分29秒,4時間46分31秒
曽波神,38.465993,141.287848,eco,511.815,11.24401,11時間14分38秒,4時間45分22秒
陸前稲井,38.445463,141.334847,cool,514.072,11.26366,11時間15分49秒,4時間44分11秒
渡波,38.420051,141.365123,cool,516.898,11.28822,11時間17分18秒,4時間42分42秒
万石浦,38.428855,141.368555,heat,515.920,11.27973,11時間16分47秒,4時間43分13秒
沢田,38.432397,141.38234,heat,515.530,11.27634,11時間16分35秒,4時間43分25秒
浦宿,38.436542,141.421355,heat,515.097,11.27257,11時間16分21秒,4時間43分39秒
女川,38.446764,141.443955,heat,513.986,11.26291,11時間15分46秒,4時間44分14秒
和渕,38.525772,141.220428,eco,505.260,11.18680,11時間11分12秒,4時間48分48秒
のの岳,38.552567,141.225813,eco,502.271,11.16065,11時間9分38秒,4時間50分22秒
陸前豊里,38.582481,141.244674,eco,498.915,11.13122,11時間7分52秒,4時間52分8秒
御岳堂,38.605662,141.264718,eco,496.310,11.10834,11時間6分30秒,4時間53分30秒
柳津(宮城),38.611864,141.306369,eco,495.582,11.10194,11時間6分7秒,4時間53分53秒
陸前横山,38.631019,141.354201,unknown,493.438,11.08308,11時間4分59秒,4時間55分1秒
陸前戸倉,38.64775,141.43335,unknown,491.626,11.06712,11時間4分2秒,4時間55分58秒
志津川,38.676666,141.449625,unknown,488.433,11.03896,11時間2分20秒,4時間57分40秒
清水浜,38.691889,141.489623,unknown,486.809,11.02462,11時間1分29秒,4時間58分31秒
歌津,38.718293,141.519751,unknown,483.942,10.99927,10時間59分57秒,5時間0分3秒
陸前港,38.739198,141.531026,unknown,481.647,10.97895,10時間58分44秒,5時間1分16秒
蔵内,38.753577,141.525006,unknown,480.033,10.96465,10時間57分53秒,5時間2分7秒
陸前小泉,38.767626,141.508008,unknown,478.430,10.95042,10時間57分2秒,5時間2分58秒
本吉,38.786738,141.502616,unknown,476.293,10.93145,10時間55分53秒,5時間4分7秒
小金沢,38.796359,141.533986,unknown,475.302,10.92264,10時間55分22秒,5時間4分38秒
大谷海岸,38.814266,141.567134,unknown,473.410,10.90581,10時間54分21秒,5時間5分39秒
陸前階上,38.837431,141.580276,unknown,470.880,10.88328,10時間53分0秒,5時間7分0秒
最知,38.853374,141.58127,unknown,469.112,10.86752,10時間52分3秒,5時間7分57秒
松岩,38.873694,141.583137,unknown,466.861,10.84744,10時間50分51秒,5時間9分9秒
南気仙沼,38.895078,141.576671,unknown,464.463,10.82601,10時間49分34秒,5時間10分26秒
不動の沢,38.898482,141.562681,unknown,464.038,10.82221,10時間49分20秒,5時間10分40秒
郡山(福島),37.398187,140.389363,heat,635.769,12.28102,12時間16分52秒,3時間43分8秒
郡山富田,37.420643,140.369167,heat,633.513,12.26297,12時間15分47秒,3時間44分13秒
喜久田,37.451746,140.341912,heat,630.392,12.23794,12時間14分17秒,3時間45分43秒
安子ヶ島,37.472048,140.310133,heat,628.526,12.22295,12時間13分23秒,3時間46分37秒
磐梯熱海,37.480743,140.2707,heat,628.046,12.21909,12時間13分9秒,3時間46分51秒
中山宿,37.495648,140.219401,heat,627.054,12.21111,12時間12分40秒,3時間47分20秒
上戸,37.487848,140.163538,heat,628.652,12.22396,12時間13分26秒,3時間46分34秒
猪苗代湖畔,37.500563,140.147564,heat,627.474,12.21449,12時間12分52秒,3時間47分8秒
関都,37.515577,140.143619,cool,625.879,12.20165,12時間12分6秒,3時間47分54秒
川桁,37.535639,140.136869,cool,623.770,12.18464,12時間11分5秒,3時間48分55秒
猪苗代,37.546286,140.103122,cool,623.079,12.17906,12時間10分45秒,3時間49分15秒
翁島,37.552837,140.054079,cool,623.079,12.17906,12時間10分45秒,3時間49分15秒
磐梯町,37.557305,139.993413,cool,623.516,12.18259,12時間10分57秒,3時間49分3秒
東長原,37.566465,139.948239,eco,623.232,12.18030,12時間10分49秒,3時間49分11秒
広田,37.549235,139.933343,eco,625.356,12.19743,12時間11分51秒,3時間48分9秒
会津若松,37.508824,139.930159,heat,629.825,12.23339,12時間14分0秒,3時間46分0秒
堂島,37.554723,139.911706,heat,625.111,12.19546,12時間11分44秒,3時間48分16秒
笈川,37.579117,139.895318,heat,622.720,12.17616,12時間10分34秒,3時間49分26秒
塩川,37.59393,139.88716,heat,621.240,12.16420,12時間9分51秒,3時間50分9秒
姥堂,37.615952,139.881001,heat,618.942,12.14560,12時間8分44秒,3時間51分16秒
会津豊川,37.633499,139.876787,heat,617.099,12.13066,12時間7分50秒,3時間52分10秒
喜多方,37.643886,139.868365,heat,616.111,12.12264,12時間7分22秒,3時間52分38秒
山都,37.639228,139.766534,eco,618.430,12.14145,12時間8分29秒,3時間51分31秒
荻野,37.617613,139.722119,eco,621.604,12.16714,12時間10分2秒,3時間49分58秒
尾登,37.609024,139.691542,eco,623.116,12.17936,12時間10分46秒,3時間49分14秒
野沢,37.590898,139.64462,cool,625.988,12.20252,12時間12分9秒,3時間47分51秒
上野尻,37.625041,139.633869,cool,622.498,12.17437,12時間10分28秒,3時間49分32秒
徳沢,37.666876,139.602879,cool,618.588,12.14273,12時間8分34秒,3時間51分26秒
豊実,37.680541,139.576348,cool,617.651,12.13514,12時間8分6秒,3時間51分54秒
日出谷,37.705699,139.533985,cool,615.816,12.12025,12時間7分13秒,3時間52分47秒
鹿瀬,37.695656,139.479663,cool,618.061,12.13846,12時間8分18秒,3時間51分42秒
津川,37.68817,139.447136,cool,619.577,12.15074,12時間9分3秒,3時間50分57秒
三川(新潟),37.70835,139.381482,cool,618.877,12.14507,12時間8分42秒,3時間51分18秒
五十島,37.715974,139.353419,cool,618.702,12.14365,12時間8分37秒,3時間51分23秒
東下条,37.736876,139.321815,cool,617.197,12.13145,12時間7分53秒,3時間52分7秒
咲花,37.735003,139.29095,cool,618.129,12.13901,12時間8分20秒,3時間51分40秒
馬下,37.737569,139.260466,heat,618.586,12.14271,12時間8分34秒,3時間51分26秒
猿和田,37.729594,139.222481,heat,620.363,12.15710,12時間9分26秒,3時間50分34秒
五泉,37.734373,139.179785,heat,620.911,12.16154,12時間9分42秒,3時間50分18秒
北五泉,37.746785,139.169758,heat,619.840,12.15287,12時間9分10秒,3時間50分50秒
新関,37.768096,139.162508,eco,617.753,12.13596,12時間8分9秒,3時間51分51秒
東新津,37.787638,139.143768,eco,616.151,12.12297,12時間7分23秒,3時間52分37秒
七日町,37.50121,139.918958,heat,630.839,12.24153,12時間14分30秒,3時間45分30秒
西若松,37.486034,139.914172,heat,632.575,12.25546,12時間15分20秒,3時間44分40秒
会津本郷,37.463488,139.892987,heat,635.386,12.27796,12時間16分41秒,3時間43分19秒
会津高田,37.470839,139.841266,heat,635.450,12.27847,12時間16分42秒,3時間43分18秒
根岸(福島),37.501885,139.828603,heat,632.281,12.25310,12時間15分11秒,3時間44分49秒
新鶴,37.517161,139.828499,eco,630.618,12.23976,12時間14分23秒,3時間45分37秒
若宮,37.535243,139.828321,heat,628.649,12.22394,12時間13分26秒,3時間46分34秒
会津坂下,37.556695,139.821509,heat,626.430,12.20608,12時間12分22秒,3時間47分38秒
塔寺,37.569368,139.785241,heat,625.692,12.20014,12時間12分0秒,3時間48分0秒
会津坂本,37.553266,139.756802,heat,627.959,12.21839,12時間13分6秒,3時間46分54秒
会津柳津,37.538664,139.723817,heat,630.152,12.23602,12時間14分10秒,3時間45分50秒
郷戸,37.51636,139.709911,heat,632.835,12.25754,12時間15分27秒,3時間44分33秒
滝谷(福島),37.494315,139.69799,heat,635.453,12.27850,12時間16分43秒,3時間43分17秒
会津桧原,37.491664,139.679382,heat,636.090,12.28359,12時間17分1秒,3時間42分59秒
会津西方,37.480937,139.661528,heat,637.593,12.29559,12時間17分44秒,3時間42分16秒
会津宮下,37.471169,139.647102,cool,638.929,12.30625,12時間18分23秒,3時間41分37秒
早戸,37.469953,139.593605,cool,640.100,12.31559,12時間18分56秒,3時間41分4秒
会津水沼,37.483026,139.560733,cool,639.339,12.30952,12時間18分34秒,3時間41分26秒
会津中川,37.473785,139.532135,cool,640.917,12.32209,12時間19分20秒,3時間40分40秒
会津川口,37.455076,139.52384,cool,643.111,12.33954,12時間20分22秒,3時間39分38秒
本名,37.44476,139.49882,cool,644.740,12.35248,12時間21分9秒,3時間38分51秒
会津越川,37.398684,139.469405,cool,650.329,12.39674,12時間23分48秒,3時間36分12秒
会津横田,37.392353,139.435853,cool,651.716,12.40769,12時間24分28秒,3時間35分32秒
会津大塩,37.392803,139.413044,eco,652.152,12.41113,12時間24分40秒,3時間35分20秒
会津塩沢,37.393599,139.355096,eco,653.321,12.42034,12時間25分13秒,3時間34分47秒
会津蒲生,37.381775,139.333213,eco,655.077,12.43417,12時間26分3秒,3時間33分57秒
只見,37.350239,139.314783,eco,658.880,12.46405,12時間27分51秒,3時間32分9秒
田子倉,37.317869,139.255142,unknown,663.701,12.50178,12時間30分6秒,3時間29分54秒
大白川,37.341687,139.121373,cool,664.282,12.50632,12時間30分23秒,3時間29分37秒
柿ノ木,37.341195,139.08933,unknown,665.113,12.51281,12時間30分46秒,3時間29分14秒
入広瀬,37.358818,139.06599,cool,663.805,12.50260,12時間30分9秒,3時間29分51秒
上条(新潟),37.346836,139.050698,cool,665.463,12.51554,12時間30分56秒,3時間29分4秒
越後須原,37.320591,139.017463,heat,669.092,12.54380,12時間32分38秒,3時間27分22秒
魚沼田中,37.294413,138.992578,heat,672.509,12.57033,12時間34分13秒,3時間25分47秒
越後広瀬,37.274363,138.981141,heat,674.935,12.58911,12時間35分21秒,3時間24分39秒
藪神,37.256737,138.975698,eco,676.951,12.60469,12時間36分17秒,3時間23分43秒
小出,37.233581,138.953526,heat,679.979,12.62804,12時間37分41秒,3時間22分19秒
いわき,37.058241,140.892273,heat,669.458,12.54664,12時間32分48秒,3時間27分12秒
赤井,37.080631,140.866294,heat,667.104,12.52833,12時間31分42秒,3時間28分18秒
小川郷,37.126446,140.862514,heat,662.039,12.48879,12時間29分20秒,3時間30分40秒
江田(福島),37.179389,140.82609,heat,656.365,12.44430,12時間26分39秒,3時間33分21秒
川前,37.20559,140.750335,heat,653.928,12.42513,12時間25分30秒,3時間34分30秒
夏井,37.253108,140.662552,heat,649.287,12.38850,12時間23分19秒,3時間36分41秒
小野新町,37.275819,140.63656,heat,646.974,12.37019,12時間22分13秒,3時間37分47秒
神俣,37.324186,140.659487,heat,641.437,12.32623,12時間19分34秒,3時間40分26秒
菅谷,37.351024,140.644185,cool,638.585,12.30351,12時間18分13秒,3時間41分47秒
大越,37.386746,140.630693,cool,634.738,12.27278,12時間16分22秒,3時間43分38秒
磐城常葉,37.420611,140.605579,cool,631.198,12.24441,12時間14分40秒,3時間45分20秒
船引,37.44291,140.574558,cool,628.999,12.22675,12時間13分36秒,3時間46分24秒
要田,37.453969,140.520773,eco,628.270,12.22089,12時間13分15秒,3時間46分45秒
三春,37.449841,140.479275,eco,629.129,12.22780,12時間13分40秒,3時間46分20秒
舞木,37.416716,140.435074,eco,633.238,12.26077,12時間15分39秒,3時間44分21秒
黒磯,36.970128,140.060204,heat,686.942,12.68150,12時間40分53秒,3時間19分7秒
高久,36.996572,140.087346,heat,683.670,12.65642,12時間39分23秒,3時間20分37秒
黒田原,37.022848,140.119586,heat,680.355,12.63094,12時間37分51秒,3時間22分9秒
豊原,37.055014,140.155066,heat,676.358,12.60011,12時間36分0秒,3時間24分0秒
白坂,37.09457,140.184388,heat,671.633,12.56353,12時間33分49秒,3時間26分11秒
新白河,37.12331,140.188969,heat,668.412,12.53851,12時間32分19秒,3時間27分41秒
白河,37.129692,140.213742,heat,667.402,12.53065,12時間31分50秒,3時間28分10秒
久田野,37.137048,140.259458,heat,666.041,12.52004,12時間31分12秒,3時間28分48秒
泉崎,37.15835,140.299026,heat,663.232,12.49812,12時間29分53秒,3時間30分7秒
矢吹,37.205286,140.327983,heat,657.728,12.45501,12時間27分18秒,3時間32分42秒
鏡石,37.250733,140.346812,heat,652.505,12.41391,12時間24分50秒,3時間35分10秒
須賀川,37.300335,140.372014,heat,646.755,12.36846,12時間22分6秒,3時間37分54秒
安積永盛,37.356967,140.368943,heat,640.540,12.31909,12時間19分9秒,3時間40分51秒
日和田,37.446405,140.388333,heat,630.460,12.23849,12時間14分19秒,3時間45分41秒
五百川,37.482887,140.38785,heat,626.440,12.20616,12時間12分22秒,3時間47分38秒
本宮(福島),37.514177,140.399534,heat,622.859,12.17728,12時間10分38秒,3時間49分22秒
杉田(福島),37.563307,140.413663,cool,617.284,12.13216,12時間7分56秒,3時間52分4秒
二本松,37.589598,140.435389,cool,614.148,12.10669,12時間6分24秒,3時間53分36秒
安達,37.611724,140.466042,cool,611.383,12.08419,12時間5分3秒,3時間54分57秒
松川,37.653825,140.48442,cool,606.544,12.04469,12時間2分41秒,3時間57分19秒
金谷川,37.680526,140.452244,cool,603.932,12.02330,12時間1分24秒,3時間58分36秒
南福島,37.723665,140.456074,cool,599.130,11.98389,11時間59分2秒,4時間0分58秒
東福島,37.800447,140.478058,eco,590.421,11.91205,11時間54分43秒,4時間5分17秒
伊達,37.823917,140.493255,eco,587.671,11.88927,11時間53分21秒,4時間6分39秒
桑折,37.855258,140.517508,eco,583.960,11.85846,11時間51分30秒,4時間8分30秒
藤田,37.879062,140.539722,eco,581.106,11.83471,11時間50分5秒,4時間9分55秒
貝田,37.908226,140.58106,eco,577.481,11.80447,11時間48分16秒,4時間11分44秒
越河,37.933616,140.604572,cool,574.453,11.77916,11時間46分45秒,4時間13分15秒
白石(宮城),38.003581,140.626164,cool,566.518,11.71257,11時間42分45秒,4時間17分15秒
東白石,38.034935,140.651109,cool,562.826,11.68146,11時間40分53秒,4時間19分7秒
北白川,38.032607,140.692613,cool,562.727,11.68063,11時間40分50秒,4時間19分10秒
大河原(宮城),38.047491,140.740142,cool,560.696,11.66348,11時間39分49秒,4時間20分11秒
船岡(宮城),38.059298,140.767366,cool,559.182,11.65068,11時間39分2秒,4時間20分58秒
槻木,38.07864,140.809992,cool,556.732,11.62995,11時間37分48秒,4時間22分12秒
岩沼,38.11205,140.863783,cool,552.673,11.59552,11時間35分44秒,4時間24分16秒
館腰,38.142987,140.880208,heat,549.140,11.56548,11時間33分56秒,4時間26分4秒
名取,38.173017,140.882753,cool,545.794,11.53697,11時間32分13秒,4時間27分47秒
南仙台,38.197384,140.883296,cool,543.088,11.51387,11時間30分50秒,4時間29分10秒
太子堂,38.21711,140.883436,eco,540.899,11.49515,11時間29分43秒,4時間30分17秒
長町,38.226797,140.885986,eco,539.809,11.48582,11時間29分9秒,4時間30分51秒
東仙台,38.276512,140.920204,eco,534.091,11.43676,11時間26分12秒,4時間33分48秒
岩切,38.300773,140.954617,eco,531.209,11.41197,11時間24分43秒,4時間35分17秒
新利府,38.317059,140.972609,heat,529.308,11.39560,11時間23分44秒,4時間36分16秒
利府,38.329483,140.984652,heat,527.869,11.38319,11時間22分59秒,4時間37分1秒
陸前山王,38.299586,140.97917,eco,531.215,11.41203,11時間24分43秒,4時間35分17秒
国府多賀城,38.300933,140.99411,heat,530.992,11.41011,11時間24分36秒,4時間35分24秒
塩釜,38.309584,141.009564,heat,529.960,11.40122,11時間24分4秒,4時間35分56秒
松島,38.379892,141.065982,heat,521.913,11.33171,11時間19分54秒,4時間40分6秒
愛宕(宮城),38.397371,141.065,heat,519.975,11.31492,11時間18分54秒,4時間41分6秒
品井沼,38.431539,141.082408,eco,516.113,11.28140,11時間16分53秒,4時間43分7秒
鹿島台,38.474708,141.097965,eco,511.261,11.23919,11時間14分21秒,4時間45分39秒
松山町,38.512332,141.075187,eco,507.165,11.20345,11時間12分12秒,4時間47分48秒
田尻,38.596246,141.058912,eco,497.909,11.12239,11時間7分21秒,4時間52分39秒
瀬峰,38.655153,141.07383,eco,491.306,11.06430,11時間3分51秒,4時間56分9秒
梅ヶ沢,38.681678,141.085278,eco,488.314,11.03791,11時間2分16秒,4時間57分44秒
新田(宮城),38.711475,141.119428,eco,484.881,11.00758,11時間0分27秒,4時間59分33秒
石越,38.768778,141.15906,eco,478.391,10.95008,10時間57分0秒,5時間3分0秒
油島,38.797113,141.175706,eco,475.196,10.92170,10時間55分18秒,5時間4分42秒
花泉,38.83331,141.180013,eco,471.162,10.88580,10時間53分9秒,5時間6分51秒
清水原,38.854915,141.156576,eco,468.825,10.86496,10時間51分54秒,5時間8分6秒
有壁,38.867371,141.120994,eco,467.554,10.85362,10時間51分13秒,5時間8分47秒
山ノ目,38.951253,141.131921,eco,458.197,10.76990,10時間46分12秒,5時間13分48秒
平泉,38.987935,141.117786,eco,454.171,10.73376,10時間44分2秒,5時間15分58秒
前沢,39.048686,141.12624,cool,447.391,10.67273,10時間40分22秒,5時間19分38秒
陸中折居,39.094185,141.140864,cool,442.286,10.62665,10時間37分36秒,5時間22分24秒
水沢,39.138998,141.146395,cool,437.288,10.58142,10時間34分53秒,5時間25分7秒
金ヶ崎,39.199615,141.112894,cool,430.673,10.52140,10時間31分17秒,5時間28分43秒
六原,39.227894,141.097605,cool,427.593,10.49339,10時間29分36秒,5時間30分24秒
村崎野,39.323027,141.120442,cool,416.935,10.39617,10時間23分46秒,5時間36分14秒
花巻空港,39.442639,141.127625,cool,403.621,10.27408,10時間16分27秒,5時間43分33秒
石鳥谷,39.490919,141.146861,cool,398.186,10.22405,10時間13分27秒,5時間46分33秒
日詰,39.538734,141.160637,cool,392.825,10.17458,10時間10分29秒,5時間49分31秒
紫波中央,39.5549,141.15995,heat,391.032,10.15802,10時間9分29秒,5時間50分31秒
古館,39.580844,141.154575,heat,388.168,10.13153,10時間7分54秒,5時間52分6秒
矢幅,39.613293,141.148299,heat,384.585,10.09835,10時間5分54秒,5時間54分6秒
岩手飯岡,39.65373,141.146861,heat,380.098,10.05674,10時間3分24秒,5時間56分36秒
仙北町,39.687919,141.148814,heat,376.293,10.02140,10時間1分17秒,5時間58分43秒
東京,35.681391,139.766103,heat,832.591,13.71841,13時間43分6秒,2時間16分54秒
新橋,35.666195,139.758587,heat,834.366,13.73003,13時間43分48秒,2時間16分12秒
品川,35.62876,139.738999,eco,838.754,13.75866,13時間45分31秒,2時間14分29秒
川崎,35.531311,139.697485,cool,850.045,13.83158,13時間49分54秒,2時間10分6秒
横浜,35.466195,139.622704,cool,858.283,13.88412,13時間53分3秒,2時間6分57秒
戸塚,35.400432,139.534282,cool,866.833,13.93806,13時間56分17秒,2時間3分43秒
大船,35.353466,139.531127,cool,872.028,13.97053,13時間58分14秒,2時間1分46秒
藤沢,35.338882,139.487293,cool,874.309,13.98472,13時間59分5秒,2時間0分55秒
辻堂,35.336847,139.447106,cool,875.171,13.99007,13時間59分24秒,2時間0分36秒
茅ケ崎,35.330741,139.407197,cool,876.487,13.99822,13時間59分54秒,2時間0分6秒
平塚,35.327647,139.349063,cool,877.791,14.00629,14時間0分23秒,1時間59分37秒
大磯,35.311299,139.313388,cool,880.183,14.02104,14時間1分16秒,1時間58分44秒
二宮(JR),35.298644,139.256925,heat,882.542,14.03555,14時間2分8秒,1時間57分52秒
国府津,35.280832,139.212932,cool,885.264,14.05223,14時間3分8秒,1時間56分52秒
鴨宮,35.275744,139.180147,heat,886.408,14.05923,14時間3分33秒,1時間56分27秒
小田原,35.256225,139.155772,heat,888.978,14.07489,14時間4分30秒,1時間55分30秒
早川,35.238875,139.145014,eco,891.064,14.08757,14時間5分15秒,1時間54分45秒
根府川,35.202455,139.138504,eco,895.150,14.11229,14時間6分44秒,1時間53分16秒
真鶴,35.156837,139.132148,eco,900.235,14.14285,14時間8分34秒,1時間51分26秒
湯河原,35.146178,139.102142,eco,901.947,14.15309,14時間9分11秒,1時間50分49秒
熱海,35.103573,139.077679,heat,907.038,14.18339,14時間11分0秒,1時間49分0秒
大崎,35.619772,139.728439,cool,839.890,13.76604,13時間45分58秒,2時間14分2秒
五反田,35.625974,139.723822,eco,839.275,13.76204,13時間45分43秒,2時間14分17秒
目黒,35.633923,139.715775,eco,838.518,13.75712,13時間45分26秒,2時間14分34秒
恵比寿,35.646685,139.71007,cool,837.199,13.74853,13時間44分55秒,2時間15分5秒
渋谷,35.658871,139.701238,cool,835.989,13.74064,13時間44分26秒,2時間15分34秒
原宿,35.670646,139.702592,cool,834.677,13.73207,13時間43分55秒,2時間16分5秒
明治神宮前〈原宿〉,35.669071,139.703995,cool,834.830,13.73307,13時間43分59秒,2時間16分1秒
代々木,35.683061,139.702042,cool,833.323,13.72321,13時間43分24秒,2時間16分36秒
新宿,35.689729,139.700464,heat,832.614,13.71856,13時間43分7秒,2時間16分53秒
新大久保,35.700875,139.700261,eco,831.394,13.71056,13時間42分38秒,2時間17分22秒
高田馬場,35.712677,139.703715,eco,830.048,13.70171,13時間42分6秒,2時間17分54秒
目白,35.720476,139.706228,eco,829.156,13.69584,13時間41分45秒,2時間18分15秒
池袋,35.730256,139.711086,heat,828.012,13.68831,13時間41分18秒,2時間18分42秒
大塚(東京),35.731412,139.728584,heat,827.631,13.68580,13時間41分9秒,2時間18分51秒
大塚駅前,35.732082,139.729593,heat,827.543,13.68522,13時間41分7秒,2時間18分53秒
巣鴨,35.733445,139.739303,heat,827.254,13.68331,13時間41分0秒,2時間19分0秒
駒込,35.736825,139.748053,heat,826.758,13.68003,13時間40分48秒,2時間19分12秒
田端,35.737781,139.761229,heat,826.466,13.67811,13時間40分41秒,2時間19分19秒
西日暮里,35.731954,139.766857,heat,827.027,13.68181,13時間40分55秒,2時間19分5秒
日暮里,35.727908,139.771287,heat,827.409,13.68433,13時間41分4秒,2時間18分56秒
鶯谷,35.721484,139.778015,heat,828.020,13.68836,13時間41分18秒,2時間18分42秒
上野,35.71379,139.777043,heat,828.879,13.69402,13時間41分38秒,2時間18分22秒
御徒町,35.707282,139.774727,heat,829.626,13.69894,13時間41分56秒,2時間18分4秒
上野広小路,35.70768,139.772877,heat,829.609,13.69883,13時間41分56秒,2時間18分4秒
仲御徒町,35.706649,139.776138,eco,829.676,13.69927,13時間41分57秒,2時間18分3秒
上野御徒町,35.707893,139.774332,eco,829.565,13.69854,13時間41分55秒,2時間18分5秒
秋葉原,35.698619,139.773288,heat,830.598,13.70533,13時間42分19秒,2時間17分41秒
神田(東京),35.691173,139.770641,heat,831.453,13.71094,13時間42分39秒,2時間17分21秒
有楽町,35.675441,139.763806,heat,833.277,13.72290,13時間43分22秒,2時間16分38秒
浜松町,35.655391,139.757135,heat,835.573,13.73792,13時間44分17秒,2時間15分43秒
田町(東京),35.645736,139.747575,heat,836.768,13.74572,13時間44分45秒,2時間15分15秒
高輪ゲートウェイ,35.635475,139.740757,heat,837.991,13.75369,13時間45分13秒,2時間14分47秒
尻手,35.530939,139.684233,cool,850.277,13.83307,13時間49分59秒,2時間10分1秒
矢向,35.539408,139.68055,cool,849.401,13.82745,13時間49分39秒,2時間10分21秒
鹿島田,35.551459,139.674964,cool,848.159,13.81947,13時間49分10秒,2時間10分50秒
平間,35.560565,139.671039,cool,847.217,13.81341,13時間48分48秒,2時間11分12秒
向河原,35.572891,139.66725,cool,845.920,13.80506,13時間48分18秒,2時間11分42秒
武蔵小杉,35.57669,139.65963,cool,845.615,13.80309,13時間48分11秒,2時間11分49秒
武蔵中原,35.581498,139.640613,cool,845.370,13.80151,13時間48分5秒,2時間11分55秒
武蔵新城,35.587369,139.629419,cool,844.893,13.79844,13時間47分54秒,2時間12分6秒
武蔵溝ノ口,35.598923,139.61139,cool,843.899,13.79202,13時間47分31秒,2時間12分29秒
溝の口,35.59984,139.610487,cool,843.812,13.79145,13時間47分29秒,2時間12分31秒
津田山,35.604259,139.600002,heat,843.487,13.78935,13時間47分22秒,2時間12分38秒
久地,35.610363,139.592714,heat,842.930,13.78575,13時間47分9秒,2時間12分51秒
宿河原,35.615429,139.579565,heat,842.578,13.78347,13時間47分0秒,2時間13分0秒
登戸,35.620889,139.570028,heat,842.128,13.78056,13時間46分50秒,2時間13分10秒
中野島,35.630135,139.5501,eco,841.427,13.77601,13時間46分34秒,2時間13分26秒
稲田堤,35.633701,139.535173,eco,841.273,13.77502,13時間46分30秒,2時間13分30秒
矢野口,35.641305,139.520849,heat,840.669,13.77110,13時間46分16秒,2時間13分44秒
稲城長沼,35.644184,139.502811,heat,840.645,13.77094,13時間46分15秒,2時間13分45秒
南多摩,35.649249,139.489781,heat,840.302,13.76872,13時間46分7秒,2時間13分53秒
府中本町,35.665766,139.477142,heat,838.703,13.75832,13時間45分30秒,2時間14分30秒
分倍河原,35.668493,139.468798,eco,838.542,13.75728,13時間45分26秒,2時間14分34秒
西府,35.670912,139.457477,heat,838.465,13.75678,13時間45分24秒,2時間14分36秒
谷保,35.681377,139.446724,eco,837.501,13.75050,13時間45分2秒,2時間14分58秒
矢川,35.685079,139.431611,eco,837.350,13.74951,13時間44分58秒,2時間15分2秒
西国立,35.69375,139.423887,cool,836.534,13.74419,13時間44分39秒,2時間15分21秒
立川,35.698202,139.413704,cool,836.220,13.74215,13時間44分32秒,2時間15分28秒
八丁畷,35.523071,139.691446,cool,851.037,13.83794,13時間50分17秒,2時間9分43秒
川崎新町,35.518234,139.699348,eco,851.455,13.84061,13時間50分26秒,2時間9分34秒
小田栄,35.5145,139.704944,eco,851.785,13.84273,13時間50分34秒,2時間9分26秒
浜川崎,35.510428,139.713483,eco,852.111,13.84481,13時間50分41秒,2時間9分19秒
鶴見,35.508387,139.67614,cool,852.869,13.84966,13時間50分59秒,2時間9分1秒
京急鶴見,35.507032,139.677743,cool,852.995,13.85046,13時間51分2秒,2時間8分58秒
国道,35.50083,139.675599,cool,853.707,13.85501,13時間51分18秒,2時間8分42秒
鶴見小野,35.497005,139.681226,cool,854.045,13.85716,13時間51分26秒,2時間8分34秒
弁天橋,35.495758,139.689451,cool,854.064,13.85728,13時間51分26秒,2時間8分34秒
浅野,35.497555,139.695739,cool,853.777,13.85545,13時間51分20秒,2時間8分40秒
新芝浦,35.491914,139.7001,cool,854.334,13.85901,13時間51分32秒,2時間8分28秒
海芝浦,35.486073,139.700603,cool,854.968,13.86305,13時間51分47秒,2時間8分13秒
安善,35.499668,139.700663,eco,853.474,13.85352,13時間51分13秒,2時間8分47秒
大川,35.495646,139.711038,eco,853.769,13.85540,13時間51分19秒,2時間8分41秒
武蔵白石,35.501912,139.706513,eco,853.145,13.85142,13時間51分5秒,2時間8分55秒
昭和,35.506836,139.723897,heat,852.358,13.84639,13時間50分47秒,2時間9分13秒
扇町(神奈川),35.501452,139.722147,heat,852.974,13.85033,13時間51分1秒,2時間8分59秒
北府中,35.68088,139.471792,heat,837.139,13.74814,13時間44分53秒,2時間15分7秒
西国分寺,35.699744,139.465994,heat,835.173,13.73531,13時間44分7秒,2時間15分53秒
新小平,35.73128,139.470745,heat,831.647,13.71222,13時間42分44秒,2時間17分16秒
新秋津,35.778331,139.493592,heat,826.125,13.67585,13時間40分33秒,2時間19分27秒
東所沢,35.79461,139.513878,heat,824.012,13.66187,13時間39分43秒,2時間20分17秒
新座,35.80381,139.556328,heat,822.318,13.65064,13時間39分2秒,2時間20分58秒
北朝霞,35.815475,139.587322,heat,820.548,13.63888,13時間38分20秒,2時間21分40秒
朝霞台,35.814328,139.587189,eco,820.676,13.63973,13時間38分23秒,2時間21分37秒
西浦和,35.844139,139.627707,heat,816.778,13.61374,13時間36分49秒,2時間23分11秒
武蔵浦和,35.846047,139.647974,heat,816.257,13.61026,13時間36分37秒,2時間23分23秒
南浦和,35.847648,139.669125,heat,815.759,13.60693,13時間36分25秒,2時間23分35秒
東浦和,35.864079,139.704627,heat,813.425,13.59129,13時間35分29秒,2時間24分31秒
東川口,35.875246,139.744087,eco,811.621,13.57917,13時間34分45秒,2時間25分15秒
南越谷,35.876106,139.790499,cool,810.861,13.57406,13時間34分27秒,2時間25分33秒
新越谷,35.875186,139.789905,eco,810.971,13.57480,13時間34分29秒,2時間25分31秒
越谷レイクタウン,35.876176,139.8221,cool,810.412,13.57103,13時間34分16秒,2時間25分44秒
吉川,35.87662,139.843162,eco,810.074,13.56876,13時間34分8秒,2時間25分52秒
吉川美南,35.868026,139.858445,eco,810.811,13.57372,13時間34分25秒,2時間25分35秒
新三郷,35.858667,139.869341,eco,811.693,13.57965,13時間34分47秒,2時間25分13秒
三郷(埼玉),35.845004,139.886341,eco,812.970,13.58823,13時間35分18秒,2時間24分42秒
南流山,35.838035,139.903865,cool,813.506,13.59183,13時間35分31秒,2時間24分29秒
新松戸,35.825467,139.921076,cool,814.666,13.59961,13時間35分59秒,2時間24分1秒
幸谷,35.826642,139.919912,eco,814.551,13.59884,13時間35分56秒,2時間24分4秒
新八柱,35.792013,139.938393,cool,818.127,13.62275,13時間37分22秒,2時間22分38秒
八柱,35.791394,139.937362,heat,818.208,13.62329,13時間37分24秒,2時間22分36秒
東松戸,35.770611,139.943848,eco,820.414,13.63799,13時間38分17秒,2時間21分43秒
市川大野,35.755432,139.951227,eco,821.993,13.64848,13時間38分55秒,2時間21分5秒
船橋法典,35.730435,139.966771,eco,824.553,13.66546,13時間39分56秒,2時間20分4秒
西船橋,35.707283,139.959536,eco,827.192,13.68290,13時間40分58秒,2時間19分2秒
東神奈川,35.47804,139.633466,cool,856.824,13.87486,13時間52分29秒,2時間7分31秒
京急東神奈川,35.477412,139.634669,cool,856.875,13.87518,13時間52分31秒,2時間7分29秒
大口,35.492375,139.646288,cool,855.062,13.86365,13時間51分49秒,2時間8分11秒
菊名,35.509749,139.630147,cool,853.395,13.85301,13時間51分11秒,2時間8分49秒
新横浜,35.506824,139.617348,cool,853.907,13.85628,13時間51分23秒,2時間8分37秒
小机,35.508533,139.599787,cool,853.983,13.85677,13時間51分24秒,2時間8分36秒
鴨居,35.510955,139.56707,cool,854.217,13.85826,13時間51分30秒,2時間8分30秒
中山(神奈川),35.514745,139.539692,cool,854.227,13.85832,13時間51分30秒,2時間8分30秒
十日市場(神奈川),35.526254,139.51669,eco,853.328,13.85259,13時間51分9秒,2時間8分51秒
長津田,35.531698,139.49468,cool,853.083,13.85102,13時間51分4秒,2時間8分56秒
成瀬,35.535412,139.472875,heat,853.029,13.85068,13時間51分2秒,2時間8分58秒
町田,35.542004,139.445579,heat,852.754,13.84892,13時間50分56秒,2時間9分4秒
古淵,35.556055,139.419151,eco,851.657,13.84191,13時間50分31秒,2時間9分29秒
淵野辺,35.568784,139.395075,eco,850.671,13.83559,13時間50分8秒,2時間9分52秒
矢部,35.573275,139.386373,heat,850.328,13.83339,13時間50分0秒,2時間10分0秒
相模原,35.58113,139.371007,heat,849.733,13.82958,13時間49分46秒,2時間10分14秒
橋本(神奈川),35.594975,139.344586,heat,848.679,13.82281,13時間49分22秒,2時間10分38秒
相原,35.60694,139.33169,heat,847.599,13.81587,13時間48分57秒,2時間11分3秒
八王子みなみ野,35.630664,139.330678,cool,845.029,13.79931,13時間47分58秒,2時間12分2秒
片倉,35.639704,139.34119,cool,843.858,13.79175,13時間47分30秒,2時間12分30秒
八王子,35.655555,139.338998,eco,842.168,13.78082,13時間46分51秒,2時間13分9秒
桜木町,35.451112,139.630881,cool,859.816,13.89384,13時間53分38秒,2時間6分22秒
関内,35.443336,139.636984,cool,860.580,13.89867,13時間53分55秒,2時間6分5秒
石川町,35.438808,139.642934,cool,860.989,13.90126,13時間54分5秒,2時間5分55秒
山手,35.426891,139.646425,cool,862.246,13.90920,13時間54分33秒,2時間5分27秒
根岸(神奈川),35.415887,139.636034,cool,863.605,13.91777,13時間55分4秒,2時間4分56秒
磯子,35.399881,139.617916,eco,865.628,13.93049,13時間55分50秒,2時間4分10秒
新杉田,35.386863,139.619483,eco,867.033,13.93931,13時間56分22秒,2時間3分38秒
洋光台,35.378785,139.596852,eco,868.255,13.94697,13時間56分49秒,2時間3分11秒
港南台,35.375183,139.576243,eco,868.959,13.95137,13時間57分5秒,2時間2分55秒
本郷台,35.36787,139.550159,heat,870.157,13.95886,13時間57分32秒,2時間2分28秒
西大井,35.601616,139.721729,heat,841.980,13.77960,13時間46分47秒,2時間13分13秒
新川崎,35.551784,139.671481,cool,848.174,13.81957,13時間49分10秒,2時間10分50秒
保土ケ谷,35.446746,139.599671,cool,860.760,13.89981,13時間53分59秒,2時間6分1秒
東戸塚,35.430353,139.556794,cool,863.208,13.91527,13時間54分55秒,2時間5分5秒
北鎌倉,35.337198,139.545134,cool,873.596,13.98029,13時間58分49秒,2時間1分11秒
鎌倉,35.318793,139.550428,eco,875.533,13.99231,13時間59分32秒,2時間0分28秒
逗子,35.297392,139.578292,eco,877.459,14.00423,14時間0分15秒,1時間59分45秒
東逗子,35.298781,139.601768,eco,876.959,14.00114,14時間0分4秒,1時間59分56秒
田浦,35.29271,139.637726,eco,877.100,14.00201,14時間0分7秒,1時間59分53秒
横須賀,35.284022,139.655855,heat,877.794,14.00630,14時間0分23秒,1時間59分37秒
衣笠,35.257091,139.661193,heat,880.675,14.02407,14時間1分27秒,1時間58分33秒
久里浜,35.233107,139.700862,heat,882.754,14.03685,14時間2分13秒,1時間57分47秒
京急久里浜,35.231332,139.702139,eco,882.932,14.03795,14時間2分17秒,1時間57分43秒
北茅ケ崎,35.339167,139.407569,cool,875.559,13.99247,13時間59分33秒,2時間0分27秒
香川,35.35655,139.400044,cool,873.782,13.98144,13時間58分53秒,2時間1分7秒
寒川,35.367579,139.387452,cool,872.785,13.97524,13時間58分31秒,2時間1分29秒
宮山,35.382261,139.379639,cool,871.310,13.96606,13時間57分58秒,2時間2分2秒
倉見,35.395098,139.378422,cool,869.928,13.95743,13時間57分27秒,2時間2分33秒
門沢橋,35.406761,139.380139,cool,868.624,13.94928,13時間56分57秒,2時間3分3秒
社家,35.420543,139.377281,cool,867.166,13.94015,13時間56分25秒,2時間3分35秒
厚木,35.44375,139.378631,cool,864.608,13.92408,13時間55分27秒,2時間4分33秒
海老名,35.454282,139.389328,cool,863.277,13.91570,13時間54分57秒,2時間5分3秒
入谷(神奈川),35.478478,139.391913,heat,860.590,13.89874,13時間53分55秒,2時間6分5秒
相武台下,35.492734,139.386297,heat,859.127,13.88947,13時間53分22秒,2時間6分38秒
下溝,35.518516,139.380428,heat,856.410,13.87223,13時間52分20秒,2時間7分40秒
原当麻,35.528978,139.375355,heat,855.353,13.86550,13時間51分56秒,2時間8分4秒
番田(神奈川),35.545392,139.362988,heat,853.773,13.85543,13時間51分20秒,2時間8分40秒
上溝,35.557623,139.36315,eco,852.434,13.84688,13時間50分49秒,2時間9分11秒
南橋本,35.58042,139.352484,eco,850.130,13.83213,13時間49分56秒,2時間10分4秒
四ツ谷(四ッ谷),35.686041,139.730644,heat,832.583,13.71836,13時間43分6秒,2時間16分54秒
吉祥寺,35.703119,139.579765,heat,832.970,13.72089,13時間43分15秒,2時間16分45秒
三鷹,35.702683,139.560325,cool,833.323,13.72321,13時間43分24秒,2時間16分36秒
国分寺,35.700123,139.480841,cool,834.886,13.73343,13時間44分0秒,2時間16分0秒
日野(東京),35.679244,139.39393,cool,838.629,13.75784,13時間45分28秒,2時間14分32秒
豊田,35.659502,139.381495,cool,840.997,13.77323,13時間46分24秒,2時間13分36秒
西八王子,35.656621,139.31264,eco,842.518,13.78308,13時間46分59秒,2時間13分1秒
高尾(東京),35.642026,139.282288,eco,844.652,13.79688,13時間47分49秒,2時間12分11秒
相模湖,35.617335,139.1885,cool,849.065,13.82529,13時間49分31秒,2時間10分29秒
藤野,35.615918,139.15239,cool,849.901,13.83066,13時間49分50秒,2時間10分10秒
上野原,35.618747,139.115787,cool,850.297,13.83320,13時間50分0秒,2時間10分0秒
四方津,35.614252,139.072572,cool,851.629,13.84173,13時間50分30秒,2時間9分30秒
梁川(山梨),35.605271,139.038076,cool,853.287,13.85233,13時間51分8秒,2時間8分52秒
鳥沢,35.608118,139.003345,cool,853.677,13.85481,13時間51分17秒,2時間8分43秒
猿橋,35.61288,138.968388,cool,853.874,13.85607,13時間51分22秒,2時間8分38秒
大月,35.613222,138.942729,heat,854.366,13.85921,13時間51分33秒,2時間8分27秒
初狩,35.594274,138.883966,heat,857.648,13.88009,13時間52分48秒,2時間7分12秒
笹子,35.603921,138.825205,heat,857.865,13.88147,13時間52分53秒,2時間7分7秒
甲斐大和,35.639364,138.781632,heat,854.996,13.86323,13時間51分48秒,2時間8分12秒
勝沼ぶどう郷,35.67279,138.74323,heat,852.251,13.84571,13時間50分45秒,2時間9分15秒
塩山,35.705327,138.734796,heat,848.938,13.82448,13時間49分28秒,2時間10分32秒
東山梨,35.694313,138.703026,eco,850.847,13.83672,13時間50分12秒,2時間9分48秒
山梨市,35.684961,138.683003,eco,852.312,13.84610,13時間50分46秒,2時間9分14秒
春日居町,35.673491,138.659,eco,854.100,13.85751,13時間51分27秒,2時間8分33秒
石和温泉,35.657603,138.634577,eco,856.375,13.87200,13時間52分19秒,2時間7分41秒
酒折,35.659486,138.598852,eco,857.012,13.87605,13時間52分34秒,2時間7分26秒
甲府,35.667054,138.569015,eco,856.909,13.87540,13時間52分31秒,2時間7分29秒
竜王,35.668764,138.519298,eco,857.923,13.88184,13時間52分55秒,2時間7分5秒
塩崎,35.687734,138.487521,eco,856.669,13.87387,13時間52分26秒,2時間7分34秒
韮崎,35.709711,138.451357,eco,855.214,13.86461,13時間51分53秒,2時間8分7秒
新府,35.736802,138.433093,eco,852.777,13.84907,13時間50分57秒,2時間9分3秒
穴山,35.75107,138.413858,eco,851.739,13.84243,13時間50分33秒,2時間9分27秒
日野春,35.79065,138.394316,eco,848.015,13.81855,13時間49分7秒,2時間10分53秒
長坂,35.827061,138.366459,eco,844.853,13.79818,13時間47分53秒,2時間12分7秒
小淵沢,35.863808,138.316351,eco,842.256,13.78139,13時間46分53秒,2時間13分7秒
信濃境,35.884952,138.275419,heat,841.099,13.77389,13時間46分26秒,2時間13分34秒
富士見,35.912183,138.238071,heat,839.220,13.76169,13時間45分42秒,2時間14分18秒
すずらんの里,35.930288,138.211775,heat,838.020,13.75388,13時間45分14秒,2時間14分46秒
青柳,35.942581,138.197612,heat,837.109,13.74794,13時間44分53秒,2時間15分7秒
茅野,35.995062,138.151674,eco,832.841,13.72005,13時間43分12秒,2時間16分48秒
上諏訪,36.046618,138.116306,eco,828.403,13.69089,13時間41分27秒,2時間18分33秒
下諏訪,36.071948,138.084953,eco,826.636,13.67923,13時間40分45秒,2時間19分15秒
岡谷,36.056693,138.045001,eco,829.401,13.69746,13時間41分51秒,2時間18分9秒
みどり湖,36.094176,137.981928,cool,827.323,13.68376,13時間41分2秒,2時間18分58秒
川岸,36.03296,138.021937,cool,832.571,13.71828,13時間43分6秒,2時間16分54秒
辰野,35.984565,137.997238,cool,838.382,13.75623,13時間45分22秒,2時間14分38秒
信濃川島,36.013642,137.97185,cool,836.075,13.74120,13時間44分28秒,2時間15分32秒
小野(長野),36.04693,137.9706,cool,832.618,13.71859,13時間43分7秒,2時間16分53秒
塩尻,36.114364,137.947961,cool,826.224,13.67651,13時間40分35秒,2時間19分25秒
御茶ノ水,35.699605,139.764955,heat,830.607,13.70539,13時間42分19秒,2時間17分41秒
新御茶ノ水,35.698072,139.766014,eco,830.760,13.70639,13時間42分23秒,2時間17分37秒
中野(東京),35.705765,139.665835,heat,831.365,13.71037,13時間42分37秒,2時間17分23秒
高円寺,35.705326,139.649664,cool,831.655,13.71227,13時間42分44秒,2時間17分16秒
阿佐ケ谷,35.704818,139.635868,cool,831.919,13.71400,13時間42分50秒,2時間17分10秒
荻窪,35.704523,139.620109,heat,832.192,13.71579,13時間42分57秒,2時間17分3秒
西荻窪,35.703842,139.599361,cool,832.586,13.71838,13時間43分6秒,2時間16分54秒
武蔵境,35.702083,139.543402,cool,833.657,13.72539,13時間43分31秒,2時間16分29秒
東小金井,35.701643,139.524837,cool,834.003,13.72766,13時間43分40秒,2時間16分20秒
武蔵小金井,35.701337,139.506483,cool,834.333,13.72982,13時間43分47秒,2時間16分13秒
国立,35.69923,139.44634,cool,835.557,13.73782,13時間44分16秒,2時間15分44秒
東中野,35.706529,139.684436,cool,831.006,13.70801,13時間42分29秒,2時間17分31秒
大久保(東京),35.700784,139.69732,cool,831.447,13.71091,13時間42分39秒,2時間17分21秒
千駄ケ谷,35.681231,139.711644,heat,833.384,13.72361,13時間43分25秒,2時間16分35秒
信濃町,35.680031,139.720729,heat,833.385,13.72361,13時間43分25秒,2時間16分35秒
市ケ谷(市ヶ谷),35.691105,139.735241,heat,831.961,13.71428,13時間42分51秒,2時間17分9秒
飯田橋,35.701835,139.745143,eco,830.642,13.70562,13時間42分20秒,2時間17分40秒
水道橋,35.702039,139.754312,eco,830.489,13.70461,13時間42分17秒,2時間17分43秒
浅草橋,35.697403,139.784427,heat,830.577,13.70519,13時間42分19秒,2時間17分41秒
両国,35.69579,139.793334,heat,830.631,13.70555,13時間42分20秒,2時間17分40秒
錦糸町,35.696802,139.814136,heat,830.235,13.70294,13時間42分11秒,2時間17分49秒
亀戸,35.697345,139.826262,heat,830.010,13.70146,13時間42分5秒,2時間17分55秒
平井(東京),35.70643,139.842181,heat,828.797,13.69348,13時間41分37秒,2時間18分23秒
新小岩,35.716903,139.857777,heat,827.438,13.68452,13時間41分4秒,2時間18分56秒
小岩,35.733207,139.881755,heat,825.328,13.67058,13時間40分14秒,2時間19分46秒
市川,35.728903,139.908142,cool,825.460,13.67146,13時間40分17秒,2時間19分43秒
本八幡,35.720898,139.92741,cool,826.095,13.67566,13時間40分32秒,2時間19分28秒
京成八幡,35.723811,139.92816,heat,825.765,13.67347,13時間40分25秒,2時間19分35秒
下総中山,35.714276,139.943092,heat,826.627,13.67917,13時間40分45秒,2時間19分15秒
船橋,35.701865,139.984707,cool,827.480,13.68480,13時間41分5秒,2時間18分55秒
京成船橋,35.700161,139.985451,heat,827.659,13.68598,13時間41分10秒,2時間18分50秒
東船橋,35.699811,140.00393,eco,827.475,13.68477,13時間41分5秒,2時間18分55秒
津田沼,35.691367,140.020179,cool,828.213,13.68963,13時間41分23秒,2時間18分37秒
幕張本郷,35.672664,140.042241,cool,830.016,13.70150,13時間42分5秒,2時間17分55秒
京成幕張本郷,35.672551,140.042091,cool,830.031,13.70160,13時間42分6秒,2時間17分54秒
幕張,35.6594,140.057899,cool,831.299,13.70993,13時間42分36秒,2時間17分24秒
京成幕張,35.66078,140.05591,cool,831.169,13.70908,13時間42分33秒,2時間17分27秒
新検見川,35.65169,140.073025,cool,831.977,13.71438,13時間42分52秒,2時間17分8秒
稲毛,35.637264,140.09256,cool,833.350,13.72338,13時間43分24秒,2時間16分36秒
西千葉,35.622639,140.103337,cool,834.845,13.73316,13時間43分59秒,2時間16分1秒
千葉,35.612926,140.113478,cool,835.806,13.73944,13時間44分22秒,2時間15分38秒
京成千葉,35.611618,140.114267,eco,835.942,13.74033,13時間44分25秒,2時間15分35秒
新日本橋,35.689016,139.774265,heat,831.640,13.71217,13時間42分44秒,2時間17分16秒
三越前,35.687156,139.773571,heat,831.854,13.71358,13時間42分49秒,2時間17分11秒
馬喰町,35.693365,139.78238,heat,831.049,13.70829,13時間42分30秒,2時間17分30秒
東日本橋,35.692126,139.784821,heat,831.151,13.70896,13時間42分32秒,2時間17分28秒
馬喰横山,35.69212,139.782768,cool,831.180,13.70915,13時間42分33秒,2時間17分27秒
東千葉,35.617014,140.122261,cool,835.259,13.73587,13時間44分9秒,2時間15分51秒
都賀,35.636088,140.149222,cool,832.864,13.72020,13時間43分13秒,2時間16分47秒
四街道,35.662756,140.165023,cool,829.752,13.69977,13時間41分59秒,2時間18分1秒
物井,35.68566,140.200263,cool,826.856,13.68068,13時間40分50秒,2時間19分10秒
佐倉,35.709743,140.226722,heat,823.927,13.66131,13時間39分41秒,2時間20分19秒
南酒々井,35.704217,140.267828,cool,824.133,13.66268,13時間39分46秒,2時間20分14秒
榎戸(千葉),35.683967,140.288136,cool,826.178,13.67620,13時間40分34秒,2時間19分26秒
八街,35.663228,140.317304,cool,828.200,13.68955,13時間41分22秒,2時間18分38秒
日向,35.628402,140.362447,heat,831.648,13.71222,13時間42分44秒,2時間17分16秒
成東,35.608513,140.410109,heat,833.444,13.72400,13時間43分26秒,2時間16分34秒
松尾(千葉),35.63604,140.457587,heat,830.010,13.70146,13時間42分5秒,2時間17分55秒
横芝,35.661739,140.490736,heat,826.905,13.68101,13時間40分52秒,2時間19分8秒
飯倉,35.685638,140.522328,heat,824.019,13.66192,13時間39分43秒,2時間20分17秒
八日市場,35.699317,140.552419,heat,822.284,13.65041,13時間39分1秒,2時間20分59秒
干潟,35.718308,140.603304,heat,819.826,13.63407,13時間38分3秒,2時間21分57秒
旭(千葉),35.721831,140.655041,eco,819.100,13.62924,13時間37分45秒,2時間22分15秒
飯岡,35.729339,140.683896,eco,818.091,13.62251,13時間37分21秒,2時間22分39秒
倉橋,35.737836,140.714018,eco,816.971,13.61503,13時間36分54秒,2時間23分6秒
猿田,35.747383,140.7374,eco,815.780,13.60707,13時間36分25秒,2時間23分35秒
松岸,35.739386,140.795143,cool,816.364,13.61097,13時間36分39秒,2時間23分21秒
銚子,35.729449,140.827557,cool,817.310,13.61729,13時間37分2秒,2時間22分58秒
西立川,35.703526,139.393556,heat,835.984,13.74061,13時間44分26秒,2時間15分34秒
東中神,35.706337,139.384529,heat,835.833,13.73962,13時間44分23秒,2時間15分37秒
中神,35.709058,139.375816,heat,835.687,13.73867,13時間44分19秒,2時間15分41秒
昭島,35.713305,139.361564,heat,835.473,13.73727,13時間44分14秒,2時間15分46秒
拝島,35.721278,139.343468,heat,834.922,13.73367,13時間44分1秒,2時間15分59秒
牛浜,35.734547,139.333677,heat,833.648,13.72533,13時間43分31秒,2時間16分29秒
福生,35.742456,139.327763,heat,832.892,13.72038,13時間43分13秒,2時間16分47秒
羽村,35.758073,139.316188,heat,831.397,13.71058,13時間42分38秒,2時間17分22秒
小作,35.776048,139.302233,heat,829.691,13.69937,13時間41分58秒,2時間18分2秒
河辺,35.78473,139.284032,heat,829.077,13.69532,13時間41分43秒,2時間18分17秒
東青梅,35.789768,139.272841,heat,828.734,13.69307,13時間41分35秒,2時間18分25秒
青梅,35.790512,139.258096,heat,828.926,13.69433,13時間41分40秒,2時間18分20秒
宮ノ平,35.787545,139.237289,cool,829.636,13.69900,13時間41分56秒,2時間18分4秒
日向和田,35.788665,139.229515,cool,829.660,13.69916,13時間41分57秒,2時間18分3秒
石神前,35.79683,139.225096,cool,828.855,13.69386,13時間41分38秒,2時間18分22秒
二俣尾,35.803946,139.216161,cool,828.250,13.68988,13時間41分24秒,2時間18分36秒
軍畑,35.807382,139.207431,cool,828.043,13.68851,13時間41分19秒,2時間18分41秒
沢井,35.80594,139.193324,cool,828.468,13.69131,13時間41分29秒,2時間18分31秒
御嶽,35.801468,139.182589,eco,829.160,13.69587,13時間41分45秒,2時間18分15秒
川井,35.813697,139.16429,eco,828.185,13.68945,13時間41分22秒,2時間18分38秒
古里(東京),35.816247,139.152102,eco,828.145,13.68918,13時間41分21秒,2時間18分39秒
鳩ノ巣,35.815127,139.128932,eco,828.720,13.69297,13時間41分35秒,2時間18分25秒
白丸,35.811735,139.114861,eco,829.366,13.69723,13時間41分50秒,2時間18分10秒
奥多摩,35.809357,139.096961,eco,829.980,13.70127,13時間42分5秒,2時間17分55秒
熊川,35.728321,139.33584,heat,834.289,13.72953,13時間43分46秒,2時間16分14秒
東秋留,35.725904,139.311665,heat,834.984,13.73407,13時間44分3秒,2時間15分57秒
