name,lat,lng,attr,distance(km),cool_time(h),cool_time(hms),reduction(hms)
函館,41.773709,140.726413,eco,152.834,11.46037,11時間27分37秒,7時間2分23秒
函館駅前,41.77264,140.727997,heat,152.903,11.46095,11時間27分39秒,7時間2分21秒
五稜郭,41.803557,140.733539,eco,149.508,11.43229,11時間25分56秒,7時間4分4秒
桔梗,41.846457,140.722952,heat,145.329,11.39701,11時間23分49秒,7時間6分11秒
大中山,41.864641,140.71358,heat,143.715,11.38339,11時間23分0秒,7時間7分0秒
七飯,41.886971,140.688556,heat,142.172,11.37036,11時間22分13秒,7時間7分47秒
新函館北斗,41.9054,140.646525,eco,141.647,11.36593,11時間21分57秒,7時間8分3秒
仁山,41.930011,140.635183,unknown,139.537,11.34811,11時間20分53秒,7時間9分7秒
大沼,41.971954,140.669347,heat,134.121,11.30238,11時間18分9秒,7時間11分51秒
大沼公園,41.980958,140.669758,cool,133.196,11.29457,11時間17分40秒,7時間12分20秒
赤井川,42.003267,140.642678,cool,131.904,11.28366,11時間17分1秒,7時間12分59秒
駒ヶ岳,42.038809,140.610476,cool,129.572,11.26397,11時間15分50秒,7時間14分10秒
東山(北海道),42.06172,140.605222,unknown,127.526,11.24669,11時間14分48秒,7時間15分12秒
姫川(北海道),42.081312,140.591632,unknown,126.158,11.23514,11時間14分6秒,7時間15分54秒
池田園,41.990692,140.700333,unknown,131.174,11.27749,11時間16分39秒,7時間13分21秒
流山温泉,42.003483,140.716358,unknown,129.340,11.26201,11時間15分43秒,7時間14分17秒
銚子口,42.015471,140.720656,unknown,127.976,11.25049,11時間15分2秒,7時間14分58秒
鹿部,42.06439,140.771393,cool,121.326,11.19434,11時間11分40秒,7時間18分20秒
渡島沼尻,42.10706,140.747596,cool,117.771,11.16432,11時間9分52秒,7時間20分8秒
渡島砂原,42.12164,140.689451,cool,118.397,11.16961,11時間10分11秒,7時間19分49秒
掛澗,42.119205,140.64598,eco,120.304,11.18571,11時間11分9秒,7時間18分51秒
尾白内,42.111232,140.613449,eco,122.376,11.20320,11時間12分12秒,7時間17分48秒
東森,42.106823,140.59353,eco,123.613,11.21365,11時間12分49秒,7時間17分11秒
森(北海道),42.108917,140.573846,eco,124.228,11.21884,11時間13分8秒,7時間16分52秒
桂川(北海道),42.1156,140.542788,unknown,124.916,11.22465,11時間13分29秒,7時間16分31秒
石谷,42.135519,140.506525,unknown,124.657,11.22246,11時間13分21秒,7時間16分39秒
本石倉,42.159668,140.471957,unknown,124.042,11.21727,11時間13分2秒,7時間16分58秒
石倉,42.17285,140.458436,eco,123.497,11.21267,11時間12分46秒,7時間17分14秒
落部,42.187617,140.420755,eco,124.038,11.21724,11時間13分2秒,7時間16分58秒
野田生,42.217104,140.37586,eco,123.787,11.21512,11時間12分54秒,7時間17分6秒
山越,42.231172,140.326593,eco,125.246,11.22744,11時間13分39秒,7時間16分21秒
八雲,42.253391,140.273342,eco,126.406,11.23723,11時間14分14秒,7時間15分46秒
鷲ノ巣,42.278389,140.269919,unknown,124.613,11.22209,11時間13分20秒,7時間16分40秒
山崎(北海道),42.314635,140.2746,eco,121.509,11.19588,11時間11分45秒,7時間18分15秒
黒岩,42.368296,140.288173,eco,116.616,11.15457,11時間9分16秒,7時間20分44秒
北豊津,42.400969,140.297868,unknown,113.604,11.12914,11時間7分45秒,7時間22分15秒
国縫,42.439319,140.320885,eco,109.393,11.09360,11時間5分37秒,7時間24分23秒
中ノ沢,42.477928,140.346077,unknown,105.065,11.05707,11時間3分25秒,7時間26分35秒
長万部,42.512477,140.37507,eco,100.810,11.02116,11時間1分16秒,7時間28分44秒
二股,42.575869,140.320821,unknown,100.288,11.01675,11時間1分0秒,7時間29分0秒
蕨岱,42.626353,140.313353,unknown,97.832,10.99603,10時間59分46秒,7時間30分14秒
黒松内,42.669608,140.305704,eco,96.031,10.98084,10時間58分51秒,7時間31分9秒
熱郛,42.675653,140.375084,eco,90.725,10.93609,10時間56分10秒,7時間33分50秒
目名,42.761432,140.465742,eco,79.756,10.84362,10時間50分37秒,7時間39分23秒
蘭越,42.804542,140.52894,heat,73.062,10.78723,10時間47分14秒,7時間42分46秒
昆布,42.797984,140.596107,heat,68.411,10.74807,10時間44分53秒,7時間45分7秒
ニセコ,42.808746,140.684588,heat,61.447,10.68947,10時間41分22秒,7時間48分38秒
比羅夫,42.84856,140.722615,heat,56.672,10.64932,10時間38分58秒,7時間51分2秒
倶知安,42.90164,140.745471,heat,52.620,10.61527,10時間36分55秒,7時間53分5秒
小沢,42.97185,140.677657,heat,55.769,10.64173,10時間38分30秒,7時間51分30秒
銀山,43.040888,140.715321,cool,51.722,10.60772,10時間36分28秒,7時間53分32秒
然別,43.12551,140.737211,cool,50.217,10.59508,10時間35分42秒,7時間54分18秒
仁木,43.154091,140.770546,cool,48.049,10.57687,10時間34分37秒,7時間55分23秒
余市,43.186558,140.794686,cool,46.995,10.56802,10時間34分5秒,7時間55分55秒
蘭島,43.19651,140.854643,cool,42.697,10.53195,10時間31分55秒,7時間58分5秒
塩谷,43.202406,140.924546,cool,37.649,10.48961,10時間29分23秒,8時間0分37秒
小樽,43.197172,140.993653,cool,32.313,10.44489,10時間26分42秒,8時間3分18秒
南小樽,43.186529,141.007883,cool,30.761,10.43189,10時間25分55秒,8時間4分5秒
小樽築港,43.180752,141.029051,cool,28.934,10.41659,10時間25分0秒,8時間5分0秒
朝里,43.176868,141.063923,cool,26.208,10.39377,10時間23分38秒,8時間6分22秒
銭函,43.143403,141.159868,cool,17.588,10.32169,10時間19分18秒,8時間10分42秒
ほしみ,43.13373,141.191402,cool,14.827,10.29863,10時間17分55秒,8時間12分5秒
星置,43.132375,141.210856,cool,13.391,10.28664,10時間17分12秒,8時間12分48秒
稲穂,43.128115,141.222919,cool,12.310,10.27762,10時間16分39秒,8時間13分21秒
手稲,43.120238,141.243785,eco,10.412,10.26178,10時間15分42秒,8時間14分18秒
稲積公園,43.112023,141.257113,eco,9.008,10.25006,10時間15分0秒,8時間15分0秒
発寒,43.099819,141.277273,eco,6.904,10.23252,10時間13分57秒,8時間16分3秒
発寒中央,43.089271,141.294497,eco,5.115,10.21761,10時間13分3秒,8時間16分57秒
琴似(JR),43.081599,141.307418,eco,3.806,10.20670,10時間12分24秒,8時間17分36秒
桑園,43.070744,141.332036,eco,1.540,10.18782,10時間11分16秒,8時間18分44秒
札幌,43.068612,141.350768,eco,0.000,10.17500,10時間10分30秒,8時間19分30秒
さっぽろ,43.06637,141.350299,heat,0.252,10.17710,10時間10分38秒,8時間19分22秒
苗穂,43.06826,141.373471,eco,1.845,10.19036,10時間11分25秒,8時間18分35秒
白石(JR),43.054715,141.413612,eco,5.334,10.21943,10時間13分10秒,8時間16分50秒
厚別,43.045154,141.46369,eco,9.538,10.25449,10時間15分16秒,8時間14分44秒
森林公園(北海道),43.056456,141.481332,eco,10.693,10.26412,10時間15分51秒,8時間14分9秒
大麻,43.072382,141.496925,eco,11.880,10.27403,10時間16分26秒,8時間13分34秒
野幌,43.092559,141.52984,eco,14.785,10.29828,10時間17分54秒,8時間12分6秒
高砂(北海道),43.100084,141.540752,eco,15.821,10.30693,10時間18分25秒,8時間11分35秒
江別,43.110189,141.55679,eco,17.357,10.31976,10時間19分11秒,8時間10分49秒
豊幌,43.136446,141.62466,eco,23.481,10.37096,10時間22分15秒,8時間7分45秒
幌向,43.151348,141.655839,eco,26.418,10.39553,10時間23分44秒,8時間6分16秒
上幌向,43.18183,141.715391,eco,32.158,10.44359,10時間26分37秒,8時間3分23秒
岩見沢,43.204201,141.759359,eco,36.421,10.47931,10時間28分46秒,8時間1分14秒
峰延,43.264694,141.814673,eco,43.485,10.53856,10時間32分19秒,7時間57分41秒
光珠内,43.292658,141.844655,eco,47.163,10.56943,10時間34分10秒,7時間55分50秒
美唄,43.330751,141.862157,eco,50.674,10.59892,10時間35分56秒,7時間54分4秒
茶志内,43.369842,141.87336,eco,53.992,10.62680,10時間37分36秒,7時間52分24秒
奈井江,43.423718,141.889115,eco,58.825,10.66742,10時間40分3秒,7時間49分57秒
豊沼,43.464224,141.901032,eco,62.611,10.69926,10時間41分57秒,7時間48分3秒
砂川,43.493468,141.909642,eco,65.410,10.72281,10時間43分22秒,7時間46分38秒
滝川,43.555278,141.900807,eco,70.063,10.76198,10時間45分43秒,7時間44分17秒
江部乙,43.627564,141.935937,heat,78.114,10.82978,10時間49分47秒,7時間40分13秒
妹背牛,43.690841,141.966591,heat,85.229,10.88975,10時間53分23秒,7時間36分37秒
深川,43.721021,142.041642,heat,91.535,10.94292,10時間56分34秒,7時間33分26秒
納内,43.732509,142.130072,heat,97.023,10.98921,10時間59分21秒,7時間30分39秒
神居古潭,43.732833,142.202222,unknown,100.929,11.02216,11時間1分20秒,7時間28分40秒
伊納,43.763305,142.27167,unknown,107.235,11.07538,11時間4分31秒,7時間25分29秒
近文,43.789193,142.325327,heat,112.308,11.11820,11時間7分6秒,7時間22分54秒
旭川,43.763492,142.357803,heat,112.186,11.11717,11時間7分2秒,7時間22分58秒
静狩,42.584065,140.460025,eco,90.442,10.93370,10時間56分1秒,7時間33分59秒
小幌,42.589731,140.537361,eco,85.061,10.88833,10時間53分18秒,7時間36分42秒
礼文,42.580422,140.595013,eco,82.132,10.86364,10時間51分49秒,7時間38分11秒
大岸,42.585969,140.639036,eco,79.051,10.83768,10時間50分16秒,7時間39分44秒
豊浦,42.580323,140.71536,eco,75.055,10.80401,10時間48分14秒,7時間41分46秒
洞爺,42.55055,140.763959,eco,74.898,10.80269,10時間48分10秒,7時間41分50秒
有珠,42.513267,140.793969,eco,76.665,10.81758,10時間49分3秒,7時間40分57秒
長和,42.488262,140.833783,eco,77.102,10.82126,10時間49分17秒,7時間40分43秒
伊達紋別,42.469395,140.855802,eco,77.922,10.82817,10時間49分41秒,7時間40分19秒
北舟岡,42.450528,140.880259,eco,78.734,10.83501,10時間50分6秒,7時間39分54秒
稀府,42.425567,140.898836,eco,80.464,10.84958,10時間50分59秒,7時間39分1秒
黄金(北海道),42.386441,140.907781,eco,84.042,10.87974,10時間52分47秒,7時間37分13秒
崎守,42.373968,140.927141,eco,84.639,10.88477,10時間53分5秒,7時間36分55秒
本輪西,42.358734,140.977561,eco,84.619,10.88460,10時間53分5秒,7時間36分55秒
室蘭,42.317864,140.97571,cool,88.929,10.92094,10時間55分15秒,7時間34分45秒
母恋,42.317295,140.990018,cool,88.592,10.91810,10時間55分5秒,7時間34分55秒
御崎,42.329014,140.993881,cool,87.258,10.90685,10時間54分25秒,7時間35分35秒
輪西,42.333775,141.005743,cool,86.437,10.89993,10時間54分0秒,7時間36分0秒
東室蘭,42.349374,141.026411,cool,84.252,10.88151,10時間52分53秒,7時間37分7秒
鷲別,42.35953,141.042759,cool,82.764,10.86897,10時間52分8秒,7時間37分52秒
幌別,42.409782,141.107293,cool,75.909,10.81121,10時間48分40秒,7時間41分20秒
富浦(北海道),42.441957,141.156878,cool,71.456,10.77370,10時間46分25秒,7時間43分35秒
登別,42.45207,141.180931,cool,69.944,10.76097,10時間45分40秒,7時間44分20秒
虎杖浜,42.464695,141.215092,heat,68.060,10.74512,10時間44分42秒,7時間45分18秒
竹浦,42.49284,141.260395,heat,64.446,10.71470,10時間42分53秒,7時間47分7秒
北吉原,42.509119,141.286199,heat,62.435,10.69778,10時間41分52秒,7時間48分8秒
萩野,42.521159,141.30603,heat,60.983,10.68557,10時間41分8秒,7時間48分52秒
白老,42.55474,141.360054,heat,57.145,10.65330,10時間39分12秒,7時間50分48秒
社台,42.578682,141.417433,heat,54.748,10.63315,10時間37分59秒,7時間52分1秒
錦岡,42.6025,141.48722,heat,53.010,10.61854,10時間37分7秒,7時間52分53秒
糸井,42.6225,141.546187,heat,52.101,10.61091,10時間36分39秒,7時間53分21秒
青葉,42.62999,141.568278,heat,51.896,10.60918,10時間36分33秒,7時間53分27秒
苫小牧,42.639665,141.596837,eco,51.743,10.60790,10時間36分28秒,7時間53分32秒
沼ノ端,42.672057,141.693132,eco,52.180,10.61157,10時間36分42秒,7時間53分18秒
遠浅,42.729533,141.769568,heat,50.846,10.60036,10時間36分1秒,7時間53分59秒
早来,42.765237,141.814106,heat,50.612,10.59840,10時間35分54秒,7時間54分6秒
安平,42.814007,141.825283,cool,47.890,10.57554,10時間34分32秒,7時間55分28秒
追分(北海道),42.873316,141.810678,cool,43.264,10.53671,10時間32分12秒,7時間57分48秒
三川(北海道),42.945029,141.800778,cool,39.087,10.50167,10時間30分6秒,7時間59分54秒
古山,42.975256,141.793969,eco,37.495,10.48832,10時間29分18秒,8時間0分42秒
由仁,43.012206,141.785868,eco,35.912,10.47505,10時間28分30秒,8時間1分30秒
栗山,43.058164,141.775603,eco,34.533,10.46349,10時間27分49秒,8時間2分11秒
栗丘,43.085444,141.744333,eco,32.020,10.44243,10時間26分33秒,8時間3分27秒
栗沢,43.120367,141.739743,eco,32.104,10.44314,10時間26分35秒,8時間3分25秒
志文,43.158903,141.744443,eco,33.495,10.45479,10時間27分17秒,8時間2分43秒
東滝川,43.574037,141.98031,unknown,75.842,10.81064,10時間48分38秒,7時間41分22秒
赤平,43.555144,142.048669,eco,78.199,10.83050,10時間49分50秒,7時間40分10秒
茂尻,43.537314,142.082156,eco,78.860,10.83607,10時間50分10秒,7時間39分50秒
平岸(JR),43.541401,142.123872,eco,81.714,10.86012,10時間51分36秒,7時間38分24秒
芦別,43.516636,142.184543,eco,83.877,10.87835,10時間52分42秒,7時間37分18秒
上芦別,43.48871,142.210855,eco,83.844,10.87807,10時間52分41秒,7時間37分19秒
野花南,43.474418,142.261772,eco,86.465,10.90017,10時間54分1秒,7時間35分59秒
島ノ下,43.3744,142.350406,unknown,87.846,10.91181,10時間54分43秒,7時間35分17秒
富良野,43.347114,142.391374,cool,89.843,10.92865,10時間55分43秒,7時間34分17秒
布部,43.291991,142.400595,unknown,88.673,10.91878,10時間55分8秒,7時間34分52秒
山部,43.244645,142.381522,unknown,85.870,10.89515,10時間53分43秒,7時間36分17秒
下金山,43.197328,142.415402,unknown,87.568,10.90946,10時間54分34秒,7時間35分26秒
金山(北海道),43.136115,142.416201,unknown,86.824,10.90319,10時間54分11秒,7時間35分49秒
東鹿越,43.164011,142.523472,unknown,95.775,10.97868,10時間58分43秒,7時間31分17秒
幾寅,43.161582,142.569474,unknown,99.461,11.00978,11時間0分35秒,7時間29分25秒
落合(北海道),43.125055,142.669104,unknown,107.224,11.07529,11時間4分31秒,7時間25分29秒
新得,43.082501,142.832432,cool,120.353,11.18612,11時間11分10秒,7時間18分50秒
十勝清水,43.012892,142.879535,cool,124.394,11.22024,11時間13分13秒,7時間16分47秒
羽帯,42.957499,142.906646,unknown,127.102,11.24311,11時間14分35秒,7時間15分25秒
御影(北海道),42.942418,142.935739,cool,129.642,11.26456,11時間15分52秒,7時間14分8秒
芽室,42.909846,143.047991,cool,139.169,11.34500,11時間20分42秒,7時間9分18秒
大成,42.918662,143.071241,cool,140.916,11.35975,11時間21分35秒,7時間8分25秒
西帯広,42.923941,143.126351,cool,145.295,11.39673,11時間23分48秒,7時間6分12秒
柏林台,42.928877,143.1645,cool,148.314,11.42221,11時間25分20秒,7時間4分40秒
帯広,42.917997,143.20195,cool,151.485,11.44898,11時間26分56秒,7時間3分4秒
札内,42.912697,143.256248,eco,155.946,11.48663,11時間29分12秒,7時間0分48秒
稲士別,42.903963,143.297528,unknown,159.402,11.51580,11時間30分57秒,6時間59分3秒
幕別,42.90784,143.359293,eco,164.341,11.55747,11時間33分27秒,6時間56分33秒
利別,42.934706,143.424445,eco,169.284,11.59917,11時間35分57秒,6時間54分3秒
池田(北海道),42.922186,143.453033,eco,171.744,11.61991,11時間37分12秒,6時間52分48秒
十弗,42.855781,143.500797,eco,176.542,11.66037,11時間39分37秒,6時間50分23秒
豊頃,42.817548,143.538615,eco,180.256,11.69167,11時間41分30秒,6時間48分30秒
新吉野,42.778238,143.60826,eco,186.622,11.74531,11時間44分43秒,6時間45分17秒
浦幌,42.810849,143.651568,eco,189.465,11.76925,11時間46分9秒,6時間43分51秒
上厚内,42.831881,143.749788,unknown,197.012,11.83278,11時間49分58秒,6時間40分2秒
厚内,42.809539,143.814389,eco,202.598,11.87978,11時間52分47秒,6時間37分13秒
直別,42.852205,143.863607,unknown,205.886,11.90742,11時間54分27秒,6時間35分33秒
尺別,42.869163,143.904331,unknown,208.940,11.93309,11時間55分59秒,6時間34分1秒
音別,42.888997,143.932442,eco,210.960,11.95006,11時間57分0秒,6時間33分0秒
古瀬,42.947893,144.008589,unknown,216.520,11.99676,11時間59分48秒,6時間30分12秒
白糠,42.956161,144.076879,heat,221.993,12.04269,12時間2分34秒,6時間27分26秒
西庶路,42.976138,144.129826,heat,226.142,12.07749,12時間4分39秒,6時間25分21秒
庶路,42.983601,144.150018,heat,227.732,12.09081,12時間5分27秒,6時間24分33秒
大楽毛,43.009078,144.273879,heat,237.645,12.17384,12時間10分26秒,6時間19分34秒
新大楽毛,43.009423,144.295558,heat,239.405,12.18857,12時間11分19秒,6時間18分41秒
新富士(北海道),43.001605,144.350758,heat,243.929,12.22640,12時間13分35秒,6時間16分25秒
釧路,42.990584,144.381983,eco,246.527,12.24812,12時間14分53秒,6時間15分7秒
東釧路,42.995207,144.411307,eco,248.882,12.26779,12時間16分4秒,6時間13分56秒
武佐(北海道),42.991364,144.426681,heat,250.153,12.27840,12時間16分42秒,6時間13分18秒
別保,42.994384,144.469596,heat,253.622,12.30736,12時間18分27秒,6時間11分33秒
上尾幌,43.032893,144.61239,heat,265.038,12.40252,12時間24分9秒,6時間5分51秒
尾幌,43.018463,144.703758,cool,272.520,12.46477,12時間27分53秒,6時間2分7秒
門静,43.057581,144.782638,cool,278.786,12.51682,12時間31分1秒,5時間58分59秒
厚岸,43.056248,144.841355,cool,283.559,12.55642,12時間33分23秒,5時間56分37秒
糸魚沢,43.103506,144.92545,unknown,290.300,12.61227,12時間36分44秒,5時間53分16秒
茶内,43.129266,145.02801,cool,298.614,12.68103,12時間40分52秒,5時間49分8秒
浜中,43.15754,145.099657,cool,304.444,12.72916,12時間43分45秒,5時間46分15秒
姉別,43.196201,145.194716,eco,312.221,12.79324,12時間47分36秒,5時間42分24秒
厚床,43.228224,145.252096,eco,316.968,12.83229,12時間49分56秒,5時間40分4秒
初田牛,43.204542,145.32277,unknown,322.619,12.87871,12時間52分43秒,5時間37分17秒
別当賀,43.218427,145.423593,eco,330.826,12.94598,12時間56分46秒,5時間33分14秒
落石,43.198335,145.519449,eco,338.544,13.00909,13時間0分33秒,5時間29分27秒
昆布盛,43.228593,145.542444,eco,340.482,13.02491,13時間1分30秒,5時間28分30秒
西和田,43.268043,145.541817,eco,340.579,13.02570,13時間1分33秒,5時間28分27秒
花咲,43.295388,145.575045,unknown,343.401,13.04872,13時間2分55秒,5時間27分5秒
東根室,43.323655,145.597234,unknown,345.359,13.06468,13時間3分53秒,5時間26分7秒
根室,43.326923,145.582707,eco,344.206,13.05529,13時間3分19秒,5時間26分41秒
植苗,42.713645,141.735344,eco,50.393,10.59656,10時間35分48秒,7時間54分12秒
美々,42.777418,141.711387,unknown,43.711,10.54046,10時間32分26秒,7時間57分34秒
新千歳空港,42.787546,141.680823,eco,41.217,10.51953,10時間31分10秒,7時間58分50秒
南千歳,42.80804,141.675388,eco,39.215,10.50274,10時間30分10秒,7時間59分50秒
千歳(北海道),42.82811,141.651934,eco,36.277,10.47811,10時間28分41秒,8時間1分19秒
長都,42.852178,141.622987,eco,32.709,10.44821,10時間26分54秒,8時間3分6秒
サッポロビール庭園,42.866812,141.605616,heat,30.553,10.43015,10時間25分49秒,8時間4分11秒
恵庭,42.883076,141.586234,heat,28.153,10.41005,10時間24分36秒,8時間5分24秒
恵み野,42.902704,141.574429,heat,25.910,10.39128,10時間23分29秒,8時間6分31秒
島松,42.922504,141.573117,heat,24.310,10.37789,10時間22分40秒,8時間7分20秒
北広島,42.979239,141.563115,heat,19.918,10.34116,10時間20分28秒,8時間9分32秒
上野幌,43.016177,141.487317,cool,12.535,10.27949,10時間16分46秒,8時間13分14秒
新札幌,43.038732,141.47237,cool,10.424,10.26188,10時間15分43秒,8時間14分17秒
新さっぽろ,43.039141,141.473106,cool,10.466,10.26223,10時間15分44秒,8時間14分16秒
平和,43.04695,141.437967,cool,7.483,10.23735,10時間14分14秒,8時間15分46秒
東追分,42.902377,141.83228,unknown,43.310,10.53709,10時間32分14秒,7時間57分46秒
川端,42.914721,141.894791,cool,47.441,10.57177,10時間34分18秒,7時間55分42秒
滝ノ上,42.910244,141.97628,unknown,53.838,10.62550,10時間37分32秒,7時間52分28秒
十三里,42.914667,142.024478,unknown,57.407,10.65550,10時間39分20秒,7時間50分40秒
新夕張,42.936611,142.03657,cool,57.668,10.65769,10時間39分28秒,7時間50分32秒
沼ノ沢,42.957586,142.030836,unknown,56.655,10.64918,10時間38分57秒,7時間51分3秒
南清水沢,42.985272,142.006597,unknown,54.110,10.62779,10時間37分40秒,7時間52分20秒
清水沢,42.99827,142.007285,unknown,53.931,10.62628,10時間37分35秒,7時間52分25秒
鹿ノ谷,43.039447,141.964476,unknown,49.970,10.59300,10時間35分35秒,7時間54分25秒
夕張,43.050926,141.967472,unknown,50.142,10.59445,10時間35分40秒,7時間54分20秒
占冠,42.993088,142.400078,eco,85.702,10.89373,10時間53分37秒,7時間36分23秒
トマム,43.055913,142.610937,eco,102.385,11.03445,11時間2分4秒,7時間27分56秒
勇払,42.632805,141.727667,eco,57.379,10.65526,10時間39分19秒,7時間50分41秒
浜厚真,42.606725,141.837071,eco,64.885,10.71840,10時間43分6秒,7時間46分54秒
浜田浦,42.590722,141.88362,unknown,68.643,10.75002,10時間45分0秒,7時間45分0秒
鵡川,42.578953,141.923892,eco,71.758,10.77625,10時間46分34秒,7時間43分26秒
汐見,42.550235,141.945255,unknown,75.327,10.80630,10時間48分23秒,7時間41分37秒
富川,42.516865,142.020855,unknown,82.179,10.86404,10時間51分51秒,7時間38分9秒
日高門別,42.481237,142.072692,unknown,87.964,10.91280,10時間54分46秒,7時間35分14秒
豊郷(北海道),42.470119,142.122493,unknown,91.635,10.94376,10時間56分38秒,7時間33分22秒
清畠,42.455709,142.176624,unknown,95.864,10.97943,10時間58分46秒,7時間31分14秒
厚賀,42.430507,142.215896,unknown,100.122,11.01535,11時間0分55秒,7時間29分5秒
大狩部,42.395695,142.259355,unknown,105.383,11.05975,11時間3分35秒,7時間26分25秒
節婦,42.38248,142.275541,unknown,107.363,11.07646,11時間4分35秒,7時間25分25秒
新冠,42.360667,142.312585,unknown,111.226,11.10907,11時間6分33秒,7時間23分27秒
静内,42.336559,142.360402,unknown,115.898,11.14851,11時間8分55秒,7時間21分5秒
東静内,42.304416,142.450485,unknown,123.693,11.21432,11時間12分52秒,7時間17分8秒
春立,42.268515,142.498943,unknown,129.333,11.26195,11時間15分43秒,7時間14分17秒
日高東別,42.280837,142.521371,unknown,129.734,11.26533,11時間15分55秒,7時間14分5秒
日高三石,42.247269,142.566859,unknown,135.017,11.30994,11時間18分36秒,7時間11分24秒
蓬栄,42.264636,142.604517,unknown,136.013,11.31835,11時間19分6秒,7時間10分54秒
本桐,42.248205,142.630455,unknown,138.822,11.34207,11時間20分31秒,7時間9分29秒
荻伏,42.206136,142.689432,unknown,145.559,11.39895,11時間23分56秒,7時間6分4秒
絵笛,42.198428,142.736134,unknown,149.015,11.42813,11時間25分41秒,7時間4分19秒
浦河,42.168366,142.769976,unknown,153.313,11.46441,11時間27分52秒,7時間2分8秒
東町,42.156037,142.788931,unknown,155.392,11.48196,11時間28分55秒,7時間1分5秒
日高幌別,42.142338,142.834519,unknown,159.227,11.51432,11時間30分52秒,6時間59分8秒
鵜苫,42.134449,142.882513,unknown,162.807,11.54453,11時間32分40秒,6時間57分20秒
西様似,42.138411,142.908737,unknown,164.184,11.55615,11時間33分22秒,6時間56分38秒
様似,42.127936,142.93596,unknown,166.657,11.57701,11時間34分37秒,6時間55分23秒
八軒,43.085845,141.319145,cool,3.204,10.20168,10時間12分6秒,8時間17分54秒
新川(北海道),43.098604,141.323824,cool,3.989,10.20822,10時間12分30秒,8時間17分30秒
新琴似,43.112928,141.335105,cool,5.089,10.21739,10時間13分3秒,8時間16分57秒
太平,43.12401,141.349526,cool,6.161,10.22632,10時間13分35秒,8時間16分25秒
百合が原,43.131476,141.360672,cool,7.036,10.23362,10時間14分1秒,8時間15分59秒
篠路,43.145152,141.364323,cool,8.582,10.24651,10時間14分47秒,8時間15分13秒
拓北,43.155568,141.381013,eco,9.976,10.25814,10時間15分29秒,8時間14分31秒
あいの里教育大,43.15528,141.39842,eco,10.384,10.26154,10時間15分42秒,8時間14分18秒
あいの里公園,43.161206,141.413276,eco,11.478,10.27067,10時間16分14秒,8時間13分46秒
ロイズタウン,43.179589,141.436236,eco,14.156,10.29303,10時間17分35秒,8時間12分25秒
太美,43.189801,141.449066,eco,15.660,10.30559,10時間18分20秒,8時間11分40秒
当別,43.22208,141.513764,eco,21.589,10.35513,10時間21分18秒,8時間8分42秒
北海道医療大学,43.230925,141.54995,eco,24.225,10.37718,10時間22分38秒,8時間7分22秒
石狩金沢,43.245385,141.569239,unknown,26.465,10.39592,10時間23分45秒,8時間6分15秒
本中小屋,43.28019,141.591661,unknown,30.579,10.43036,10時間25分49秒,8時間4分11秒
中小屋,43.306846,141.602341,unknown,33.433,10.45427,10時間27分15秒,8時間2分45秒
月ヶ岡,43.324867,141.61807,unknown,35.797,10.47408,10時間28分27秒,8時間1分33秒
知来乙,43.331545,141.649123,unknown,37.943,10.49207,10時間29分31秒,8時間0分29秒
石狩月形,43.340869,141.670193,unknown,39.834,10.50793,10時間30分29秒,7時間59分31秒
豊ヶ岡,43.366645,141.714026,unknown,44.325,10.54561,10時間32分44秒,7時間57分16秒
札比内,43.370926,141.742762,unknown,46.249,10.56176,10時間33分42秒,7時間56分18秒
晩生内,43.399921,141.779211,unknown,50.615,10.59842,10時間35分54秒,7時間54分6秒
札的,43.419153,141.803549,unknown,53.520,10.62283,10時間37分22秒,7時間52分38秒
浦臼,43.430964,141.817376,unknown,55.241,10.63729,10時間38分14秒,7時間51分46秒
鶴沼,43.457673,141.840637,unknown,58.694,10.66632,10時間39分59秒,7時間50分1秒
於札内,43.473424,141.840102,unknown,59.964,10.67700,10時間40分37秒,7時間49分23秒
南下徳富,43.485542,141.844454,unknown,61.209,10.68747,10時間41分15秒,7時間48分45秒
下徳富,43.50271,141.855574,unknown,63.242,10.70457,10時間42分16秒,7時間47分44秒
新十津川,43.545575,141.874172,unknown,67.870,10.74352,10時間44分37秒,7時間45分23秒
北一已,43.742021,142.014721,heat,92.107,10.94774,10時間56分52秒,7時間33分8秒
秩父別,43.769099,141.967757,heat,92.466,10.95077,10時間57分3秒,7時間32分57秒
北秩父別,43.789375,141.960915,heat,94.078,10.96436,10時間57分52秒,7時間32分8秒
石狩沼田,43.810032,141.934266,heat,94.953,10.97175,10時間58分18秒,7時間31分42秒
真布,43.832965,141.906756,unknown,96.114,10.98154,10時間58分54秒,7時間31分6秒
恵比島,43.851296,141.88144,unknown,96.999,10.98901,10時間59分20秒,7時間30分40秒
峠下,43.850789,141.818879,unknown,94.826,10.97067,10時間58分14秒,7時間31分46秒
幌糠,43.855521,141.758418,unknown,93.481,10.95933,10時間57分34秒,7時間32分26秒
藤山,43.88708,141.720588,unknown,95.776,10.97869,10時間58分43秒,7時間31分17秒
大和田(北海道),43.913418,141.696528,unknown,97.991,10.99737,10時間59分51秒,7時間30分9秒
留萌,43.942848,141.651433,unknown,100.189,11.01592,11時間0分57秒,7時間29分3秒
瀬越,43.934987,141.634535,unknown,99.018,11.00604,11時間0分22秒,7時間29分38秒
礼受,43.904871,141.611358,unknown,95.335,10.97497,10時間58分30秒,7時間31分30秒
阿分,43.894339,141.605598,unknown,94.090,10.96447,10時間57分52秒,7時間32分8秒
信砂,43.874479,141.589039,unknown,91.648,10.94387,10時間56分38秒,7時間33分22秒
舎熊,43.869113,141.580068,unknown,90.915,10.93769,10時間56分16秒,7時間33分44秒
朱文別,43.860678,141.564328,unknown,89.744,10.92781,10時間55分40秒,7時間34分20秒
箸別,43.859125,141.55164,unknown,89.383,10.92477,10時間55分29秒,7時間34分31秒
増毛,43.856522,141.527559,unknown,88.766,10.91957,10時間55分10秒,7時間34分50秒
神楽岡,43.745033,142.358257,heat,110.819,11.10563,11時間6分20秒,7時間23分40秒
緑が丘(北海道),43.731074,142.365701,heat,110.225,11.10062,11時間6分2秒,7時間23分58秒
西御料,43.720834,142.371507,heat,109.824,11.09723,11時間5分50秒,7時間24分10秒
西瑞穂,43.70242,142.381982,heat,109.137,11.09143,11時間5分29秒,7時間24分31秒
西神楽,43.682181,142.393677,heat,108.442,11.08557,11時間5分8秒,7時間24分52秒
西聖和,43.669047,142.415209,heat,108.906,11.08949,11時間5分22秒,7時間24分38秒
千代ヶ岡,43.643737,142.451024,heat,109.556,11.09497,11時間5分42秒,7時間24分18秒
北美瑛,43.617884,142.479594,heat,109.831,11.09729,11時間5分50秒,7時間24分10秒
美瑛,43.591186,142.461639,heat,107.003,11.07342,11時間4分24秒,7時間25分36秒
美馬牛,43.537408,142.447192,eco,102.902,11.03881,11時間2分20秒,7時間27分40秒
上富良野,43.464046,142.468761,eco,100.636,11.01969,11時間1分11秒,7時間28分49秒
西中,43.429569,142.441876,eco,97.058,10.98950,10時間59分22秒,7時間30分38秒
ラベンダー畑,43.416919,142.430681,eco,95.663,10.97773,10時間58分40秒,7時間31分20秒
中富良野,43.405704,142.420812,cool,94.438,10.96740,10時間58分3秒,7時間31分57秒
鹿討,43.387499,142.404812,cool,92.467,10.95078,10時間57分3秒,7時間32分57秒
学田,43.366234,142.386118,cool,90.189,10.93157,10時間55分54秒,7時間34分6秒
旭川四条,43.764056,142.375815,heat,113.288,11.12648,11時間7分35秒,7時間22分25秒
新旭川,43.780174,142.384789,heat,115.036,11.14123,11時間8分28秒,7時間21分32秒
永山,43.814158,142.434382,heat,120.524,11.18757,11時間11分15秒,7時間18分45秒
北永山,43.826736,142.454493,heat,122.658,11.20559,11時間12分20秒,7時間17分40秒
南比布,43.853342,142.467271,unknown,125.434,11.22903,11時間13分44秒,7時間16分16秒
比布,43.874478,142.471294,heat,127.299,11.24477,11時間14分41秒,7時間15分19秒
北比布,43.901728,142.476545,unknown,129.732,11.26532,11時間15分55秒,7時間14分5秒
蘭留,43.925072,142.473699,heat,131.428,11.27964,11時間16分47秒,7時間13分13秒
塩狩,43.96794,142.4552,heat,133.903,11.30054,11時間18分2秒,7時間11分58秒
和寒,44.026932,142.415309,heat,136.804,11.32503,11時間19分30秒,7時間10分30秒
東六線,44.068723,142.388073,unknown,139.106,11.34447,11時間20分40秒,7時間9分20秒
剣淵,44.09643,142.364754,heat,140.470,11.35599,11時間21分22秒,7時間8分38秒
北剣淵,44.139423,142.377955,unknown,144.973,11.39401,11時間23分38秒,7時間6分22秒
士別,44.172536,142.388247,cool,148.463,11.42347,11時間25分24秒,7時間4分36秒
下士別,44.210583,142.396405,unknown,152.327,11.45609,11時間27分22秒,7時間2分38秒
多寄,44.241296,142.396315,cool,155.169,11.48008,11時間28分48秒,7時間1分12秒
瑞穂,44.266349,142.396244,cool,157.505,11.49979,11時間29分59秒,7時間0分1秒
風連,44.292238,142.421624,cool,161.019,11.52944,11時間31分46秒,6時間58分14秒
名寄高校,44.331382,142.465484,cool,166.568,11.57626,11時間34分35秒,6時間55分25秒
名寄,44.349403,142.465207,cool,168.242,11.59038,11時間35分25秒,6時間54分35秒
日進(北海道),44.381713,142.467354,cool,171.371,11.61677,11時間37分0秒,6時間53分0秒
北星,44.441569,142.428116,unknown,175.478,11.65140,11時間39分5秒,6時間50分55秒
智恵文,44.455553,142.414772,cool,176.306,11.65838,11時間39分30秒,6時間50分30秒
智北,44.46103,142.394007,cool,176.038,11.65612,11時間39分22秒,6時間50分38秒
南美深,44.462604,142.367822,unknown,175.201,11.64906,11時間38分57秒,6時間51分3秒
美深,44.482951,142.350597,cool,176.567,11.66058,11時間39分38秒,6時間50分22秒
初野,44.512808,142.336129,unknown,179.005,11.68113,11時間40分52秒,6時間49分8秒
紋穂内,44.538761,142.33357,unknown,181.501,11.70217,11時間42分8秒,6時間47分52秒
恩根内,44.598486,142.309447,unknown,186.683,11.74582,11時間44分45秒,6時間45分15秒
豊清水,44.639503,142.270342,unknown,189.597,11.77037,11時間46分13秒,6時間43分47秒
天塩川温泉,44.665041,142.258682,cool,191.853,11.78936,11時間47分22秒,6時間42分38秒
咲来,44.692702,142.267569,cool,194.963,11.81554,11時間48分56秒,6時間41分4秒
音威子府,44.729448,142.259883,cool,198.519,11.84547,11時間50分44秒,6時間39分16秒
筬島,44.738883,142.197777,cool,197.731,11.83883,11時間50分20秒,6時間39分40秒
佐久,44.743986,142.048562,cool,194.498,11.81163,11時間48分42秒,6時間41分18秒
天塩中川,44.81186,142.075335,cool,202.333,11.87755,11時間52分39秒,6時間37分21秒
歌内,44.880493,142.052162,unknown,209.141,11.93478,11時間56分5秒,6時間33分55秒
問寒別,44.91233,142.025562,cool,211.998,11.95878,11時間57分32秒,6時間32分28秒
糠南,44.920778,142.000931,cool,212.415,11.96229,11時間57分44秒,6時間32分16秒
雄信内,44.911735,141.935888,unknown,210.222,11.94386,11時間56分38秒,6時間33分22秒
安牛,44.949809,141.894187,unknown,213.645,11.97262,11時間58分21秒,6時間31分39秒
南幌延,44.965084,141.884892,unknown,215.158,11.98532,11時間59分7秒,6時間30分53秒
上幌延,44.985787,141.880905,unknown,217.351,12.00374,12時間0分13秒,6時間29分47秒
幌延,45.014503,141.84569,eco,219.959,12.02562,12時間1分32秒,6時間28分28秒
下沼,45.037146,141.758218,eco,221.299,12.03687,12時間2分13秒,6時間27分47秒
豊富,45.104624,141.772088,eco,228.880,12.10044,12時間6分2秒,6時間23分58秒
徳満,45.145838,141.751039,unknown,233.177,12.13643,12時間8分11秒,6時間21分49秒
兜沼,45.220236,141.6972,eco,240.841,12.20058,12時間12分2秒,6時間17分58秒
勇知,45.259339,141.685151,eco,245.053,12.23580,12時間14分9秒,6時間15分51秒
抜海,45.316866,141.644576,unknown,251.089,12.28622,12時間17分10秒,6時間12分50秒
南稚内,45.398166,141.683026,eco,260.383,12.36375,12時間21分49秒,6時間8分11秒
稚内,45.416995,141.676999,eco,262.418,12.38070,12時間22分51秒,6時間7分9秒
南永山,43.78055,142.40853,heat,116.463,11.15328,11時間9分12秒,7時間20分48秒
東旭川,43.776571,142.441544,heat,118.139,11.16743,11時間10分3秒,7時間19分57秒
北日ノ出,43.781813,142.466127,unknown,120.008,11.18321,11時間11分0秒,7時間19分0秒
桜岡,43.801812,142.486968,heat,122.731,11.20620,11時間12分22秒,7時間17分38秒
当麻,43.825477,142.516987,heat,126.277,11.23614,11時間14分10秒,7時間15分50秒
将軍山,43.857455,142.521559,unknown,128.926,11.25851,11時間15分31秒,7時間14分29秒
伊香牛,43.876025,142.525227,eco,130.544,11.27217,11時間16分20秒,7時間13分40秒
愛別,43.898635,142.582176,eco,135.602,11.31488,11時間18分54秒,7時間11分6秒
中愛別,43.896216,142.655424,eco,139.813,11.35044,11時間21分2秒,7時間8分58秒
愛山,43.866442,142.680699,unknown,139.243,11.34563,11時間20分44秒,7時間9分16秒
安足間,43.852011,142.693868,eco,139.063,11.34411,11時間20分39秒,7時間9分21秒
東雲(北海道),43.843693,142.716544,unknown,139.928,11.35141,11時間21分5秒,7時間8分55秒
上川,43.848508,142.766895,eco,143.471,11.38133,11時間22分53秒,7時間7分7秒
上白滝,43.876501,143.1444,unknown,170.342,11.60809,11時間36分29秒,6時間53分31秒
白滝,43.884435,143.180795,eco,173.296,11.63300,11時間37分59秒,6時間52分1秒
旧白滝,43.919905,143.236729,unknown,179.170,11.68252,11時間40分57秒,6時間49分3秒
下白滝,43.944553,143.276088,unknown,183.288,11.71722,11時間43分2秒,6時間46分58秒
丸瀬布,44.006354,143.335817,cool,190.978,11.78199,11時間46分55秒,6時間43分5秒
瀬戸瀬,44.008753,143.420937,cool,196.900,11.83184,11時間49分55秒,6時間40分5秒
遠軽,44.060278,143.520667,cool,206.691,11.91419,11時間54分51秒,6時間35分9秒
安国,43.993322,143.535762,cool,203.951,11.89115,11時間53分28秒,6時間36分32秒
生野(北海道),43.959928,143.532945,unknown,201.949,11.87432,11時間52分28秒,6時間37分32秒
生田原,43.923674,143.534627,cool,200.168,11.85934,11時間51分34秒,6時間38分26秒
金華,43.803484,143.57114,unknown,197.015,11.83281,11時間49分58秒,6時間40分2秒
西留辺蘂,43.785345,143.603257,cool,198.585,11.84602,11時間50分46秒,6時間39分14秒
留辺蘂,43.785534,143.621394,cool,199.935,11.85738,11時間51分27秒,6時間38分33秒
相内,43.795948,143.756449,cool,210.408,11.94543,11時間56分44秒,6時間33分16秒
東相内,43.805466,143.809499,cool,214.755,11.98194,11時間58分55秒,6時間31分5秒
西北見,43.803114,143.841586,cool,217.057,12.00127,12時間0分5秒,6時間29分55秒
北見,43.805504,143.898167,cool,221.390,12.03763,12時間2分15秒,6時間27分45秒
柏陽,43.824911,143.916737,cool,223.555,12.05579,12時間3分21秒,6時間26分39秒
愛し野,43.841426,143.932962,cool,225.436,12.07157,12時間4分18秒,6時間25分42秒
端野,43.851172,143.942336,cool,226.534,12.08077,12時間4分51秒,6時間25分9秒
緋牛内,43.880431,143.999887,cool,232.027,12.12680,12時間7分36秒,6時間22分24秒
美幌,43.836967,144.10563,cool,238.208,12.17855,12時間10分43秒,6時間19分17秒
西女満別,43.880057,144.148372,cool,243.093,12.21941,12時間13分10秒,6時間16分50秒
女満別,43.915886,144.170665,cool,246.197,12.24536,12時間14分43秒,6時間15分17秒
呼人,43.963695,144.218945,cool,251.767,12.29188,12時間17分31秒,6時間12分29秒
網走,44.019873,144.254156,cool,256.785,12.33375,12時間20分2秒,6時間9分58秒
桂台,44.016913,144.273223,heat,258.057,12.34436,12時間20分40秒,6時間9分20秒
鱒浦,43.982481,144.296526,heat,258.305,12.34642,12時間20分47秒,6時間9分13秒
藻琴,43.968358,144.320079,heat,259.468,12.35612,12時間21分22秒,6時間8分38秒
北浜(北海道),43.958549,144.352541,heat,261.488,12.37295,12時間22分23秒,6時間7分37秒
原生花園,43.941033,144.41443,heat,265.429,12.40578,12時間24分21秒,6時間5分39秒
浜小清水,43.934077,144.453187,cool,268.075,12.42780,12時間25分40秒,6時間4分20秒
止別,43.921558,144.519818,cool,272.634,12.46572,12時間27分57秒,6時間2分3秒
知床斜里,43.910749,144.661647,cool,283.009,12.55186,12時間33分7秒,5時間56分53秒
中斜里,43.874608,144.659033,cool,281.581,12.54002,12時間32分24秒,5時間57分36秒
南斜里,43.867531,144.63431,unknown,279.455,12.52238,12時間31分21秒,5時間58分39秒
清里町,43.83871,144.593948,cool,275.415,12.48883,12時間29分20秒,6時間0分40秒
札弦,43.786574,144.531526,cool,268.960,12.43516,12時間26分7秒,6時間3分53秒
緑,43.718282,144.505499,eco,264.922,12.40156,12時間24分6秒,6時間5分54秒
川湯温泉,43.616258,144.457749,eco,258.512,12.34815,12時間20分53秒,6時間9分7秒
美留和,43.555316,144.437656,eco,255.536,12.32333,12時間19分24秒,6時間10分36秒
摩周,43.487373,144.463981,eco,256.276,12.32950,12時間19分46秒,6時間10分14秒
南弟子屈,43.428656,144.514729,unknown,259.350,12.35514,12時間21分18秒,6時間8分42秒
磯分内,43.379389,144.554322,eco,261.844,12.37592,12時間22分33秒,6時間7分27秒
標茶,43.298472,144.608434,eco,265.346,12.40509,12時間24分18秒,6時間5分42秒
五十石,43.238771,144.545558,unknown,259.832,12.35915,12時間21分33秒,6時間8分27秒
茅沼,43.202097,144.503788,cool,256.262,12.32939,12時間19分46秒,6時間10分14秒
塘路,43.151739,144.496817,eco,255.538,12.32335,12時間19分24秒,6時間10分36秒
細岡,43.105055,144.469683,eco,253.298,12.30466,12時間18分17秒,6時間11分43秒
釧路湿原,43.100647,144.447799,eco,251.523,12.28984,12時間17分23秒,6時間12分37秒
遠矢,43.047878,144.458367,eco,252.475,12.29779,12時間17分52秒,6時間12分8秒
中小国,41.051702,140.596798,cool,232.745,12.13282,12時間7分58秒,6時間22分2秒
津軽二股,41.145937,140.514231,eco,224.650,12.06497,12時間3分54秒,6時間26分6秒
竜飛海底,41.257228,140.347946,unknown,217.712,12.00677,12時間0分24秒,6時間29分36秒
知内,41.601092,140.33494,unknown,183.299,11.71732,11時間43分2秒,6時間46分58秒
木古内,41.677642,140.434004,eco,172.026,11.62229,11時間37分20秒,6時間52分40秒
江差,41.856727,140.127933,unknown,167.987,11.58823,11時間35分18秒,6時間54分42秒
上ノ国,41.805567,140.124106,unknown,172.790,11.62874,11時間37分43秒,6時間52分17秒
中須田,41.787214,140.149321,unknown,173.275,11.63282,11時間37分58秒,6時間52分2秒
桂岡,41.773096,140.166071,unknown,173.802,11.63727,11時間38分14秒,6時間51分46秒
宮越,41.762404,140.184998,unknown,173.933,11.63837,11時間38分18秒,6時間51分42秒
湯ノ岱,41.750312,140.243698,unknown,172.476,11.62609,11時間37分34秒,6時間52分26秒
神明(北海道),41.734481,140.265709,unknown,173.043,11.63087,11時間37分51秒,6時間52分9秒
吉堀,41.684059,140.379226,unknown,173.407,11.63394,11時間38分2秒,6時間51分58秒
渡島鶴岡,41.671014,140.41137,unknown,173.510,11.63481,11時間38分5秒,6時間51分55秒
札苅,41.699271,140.468097,eco,168.639,11.59373,11時間35分37秒,6時間54分23秒
泉沢,41.700867,140.506797,eco,167.136,11.58105,11時間34分52秒,6時間55分8秒
釜谷,41.712153,140.53718,eco,164.966,11.56275,11時間33分46秒,6時間56分14秒
渡島当別,41.737309,140.579109,eco,161.021,11.52946,11時間31分46秒,6時間58分14秒
茂辺地,41.766604,140.600561,eco,157.329,11.49831,11時間29分54秒,7時間0分6秒
上磯,41.81956,140.640599,eco,150.616,11.44165,11時間26分30秒,7時間3分30秒
清川口,41.824615,140.652906,eco,149.708,11.43398,11時間26分2秒,7時間3分58秒
久根別,41.826727,140.666468,eco,149.068,11.42858,11時間25分43秒,7時間4分17秒
東久根別,41.826005,140.679731,eco,148.736,11.42578,11時間25分33秒,7時間4分27秒
七重浜,41.817643,140.707957,eco,148.765,11.42602,11時間25分34秒,7時間4分26秒
八戸,40.5092,141.431499,eco,284.672,12.56565,12時間33分56秒,5時間56分4秒
新庄,38.76256,140.306064,eco,486.779,14.18518,14時間11分7秒,4時間18分53秒
泉田,38.811758,140.310039,eco,481.333,14.14340,14時間8分36秒,4時間21分24秒
羽前豊里,38.836748,140.242247,eco,479.669,14.13060,14時間7分50秒,4時間22分10秒
真室川,38.858243,140.254814,heat,477.117,14.11096,14時間6分39秒,4時間23分21秒
釜淵,38.93281,140.263864,heat,468.826,14.04697,14時間2分49秒,4時間27分11秒
大滝,38.971485,140.320199,cool,463.700,14.00726,14時間0分26秒,4時間29分34秒
及位,38.992983,140.361164,cool,460.718,13.98412,13時間59分3秒,4時間30分57秒
院内,39.049706,140.4138,heat,453.725,13.92971,13時間55分47秒,4時間34分13秒
横堀,39.064533,140.45131,heat,451.565,13.91286,13時間54分46秒,4時間35分14秒
三関,39.110196,140.483796,heat,446.105,13.87020,13時間52分13秒,4時間37分47秒
上湯沢,39.134221,140.485262,heat,443.447,13.84939,13時間50分58秒,4時間39分2秒
湯沢,39.163443,140.487011,heat,440.215,13.82406,13時間49分27秒,4時間40分33秒
下湯沢,39.197196,140.50249,heat,436.297,13.79329,13時間47分36秒,4時間42分24秒
十文字,39.221186,140.526287,heat,433.342,13.77005,13時間46分12秒,4時間43分48秒
醍醐(秋田),39.248716,140.53853,heat,430.155,13.74494,13時間44分42秒,4時間45分18秒
柳田(秋田),39.276385,140.553856,heat,426.913,13.71937,13時間43分10秒,4時間46分50秒
横手,39.310146,140.5604,heat,423.117,13.68938,13時間41分22秒,4時間48分38秒
後三年,39.364891,140.538397,heat,417.396,13.64408,13時間38分39秒,4時間51分21秒
飯詰,39.406013,140.515378,heat,413.203,13.61081,13時間36分39秒,4時間53分21秒
大曲(秋田),39.465712,140.479628,heat,407.179,13.56291,13時間33分46秒,4時間56分14秒
神宮寺,39.494841,140.426518,heat,404.812,13.54405,13時間32分39秒,4時間57分21秒
刈和野,39.547646,140.372402,heat,399.942,13.50519,13時間30分19秒,4時間59分41秒
峰吉川,39.566586,140.32314,heat,398.743,13.49562,13時間29分44秒,5時間0分16秒
羽後境,39.618679,140.320722,heat,393.125,13.45068,13時間27分2秒,5時間2分58秒
大張野,39.663347,140.274071,heat,389.153,13.41884,13時間25分8秒,5時間4分52秒
和田,39.65087,140.218754,heat,391.592,13.43839,13時間26分18秒,5時間3分42秒
四ツ小屋,39.661341,140.144946,heat,391.995,13.44162,13時間26分30秒,5時間3分30秒
秋田,39.716748,140.129931,heat,386.360,13.39642,13時間23分47秒,5時間6分13秒
泉外旭川,39.738358,140.112283,heat,384.431,13.38093,13時間22分51秒,5時間7分9秒
土崎,39.758453,140.073601,heat,383.158,13.37070,13時間22分15秒,5時間7分45秒
上飯島,39.779336,140.06847,eco,381.043,13.35369,13時間21分13秒,5時間8分47秒
追分(秋田),39.809925,140.05781,cool,378.025,13.32939,13時間19分46秒,5時間10分14秒
大久保(秋田),39.87089,140.063079,eco,371.391,13.27588,13時間16分33秒,5時間13分27秒
羽後飯塚,39.898981,140.0733,eco,368.148,13.24967,13時間14分59秒,5時間15分1秒
井川さくら,39.911925,140.076022,eco,366.702,13.23798,13時間14分17秒,5時間15分43秒
八郎潟,39.947366,140.078382,eco,362.866,13.20693,13時間12分25秒,5時間17分35秒
鯉川,39.996361,140.077474,eco,357.669,13.16479,13時間9分53秒,5時間20分7秒
鹿渡,40.044619,140.082621,eco,352.408,13.12206,13時間7分19秒,5時間22分41秒
森岳,40.103164,140.070886,eco,346.486,13.07386,13時間4分26秒,5時間25分34秒
北金岡,40.141895,140.063565,eco,342.570,13.04194,13時間2分31秒,5時間27分29秒
東能代,40.191579,140.065746,heat,337.256,12.99856,12時間59分55秒,5時間30分5秒
鶴形,40.203879,140.118507,cool,334.589,12.97676,12時間58分36秒,5時間31分24秒
富根,40.217956,140.172643,cool,331.741,12.95347,12時間57分12秒,5時間32分48秒
二ツ井,40.212506,140.235729,cool,330.816,12.94589,12時間56分45秒,5時間33分15秒
前山,40.214785,140.312378,cool,328.845,12.92975,12時間55分47秒,5時間34分13秒
鷹ノ巣(鷹巣),40.232059,140.369816,cool,325.764,12.90450,12時間54分16秒,5時間35分44秒
糠沢,40.251094,140.397827,cool,323.134,12.88293,12時間52分59秒,5時間37分1秒
早口,40.271315,140.447572,cool,319.958,12.85686,12時間51分25秒,5時間38分35秒
下川沿,40.276408,140.496625,cool,318.476,12.84468,12時間50分41秒,5時間39分19秒
大館,40.288122,140.555946,cool,316.140,12.82548,12時間49分32秒,5時間40分28秒
白沢(秋田),40.338103,140.591657,cool,310.086,12.77566,12時間46分32秒,5時間43分28秒
陣場,40.398864,140.607523,cool,303.197,12.71887,12時間43分8秒,5時間46分52秒
津軽湯の沢,40.441879,140.632055,heat,298.098,12.67677,12時間40分36秒,5時間49分24秒
碇ヶ関,40.478988,140.622443,heat,294.215,12.64467,12時間38分41秒,5時間51分19秒
長峰,40.516072,140.603069,heat,290.516,12.61406,12時間36分51秒,5時間53分9秒
大鰐温泉,40.52154,140.566914,heat,290.576,12.61456,12時間36分52秒,5時間53分8秒
大鰐,40.52182,140.566822,heat,290.548,12.61433,12時間36分52秒,5時間53分8秒
石川(JR),40.556021,140.530951,heat,287.526,12.58930,12時間35分21秒,5時間54分39秒
弘前,40.599723,140.485016,eco,283.739,12.55791,12時間33分28秒,5時間56分32秒
撫牛子,40.621298,140.497616,heat,281.151,12.53645,12時間32分11秒,5時間57分49秒
川部,40.646862,140.521376,eco,277.904,12.50950,12時間30分34秒,5時間59分26秒
北常盤,40.67053,140.54359,eco,274.899,12.48454,12時間29分4秒,6時間0分56秒
浪岡,40.71021,140.580664,eco,269.875,12.44278,12時間26分34秒,6時間3分26秒
大釈迦,40.756736,140.587776,eco,264.705,12.39975,12時間23分59秒,6時間6分1秒
鶴ヶ坂,40.791228,140.634878,cool,260.063,12.36108,12時間21分40秒,6時間8分20秒
津軽新城,40.828022,140.672025,cool,255.385,12.32207,12時間19分19秒,6時間10分41秒
新青森,40.82749,140.693449,cool,255.059,12.31935,12時間19分10秒,6時間10分50秒
青森,40.828668,140.734738,cool,254.225,12.31239,12時間18分45秒,6時間11分15秒
野辺地,40.855142,141.119603,cool,246.867,12.25096,12時間15分3秒,6時間14分57秒
北野辺地,40.871077,141.134115,cool,245.010,12.23544,12時間14分8秒,6時間15分52秒
有戸,40.913949,141.189264,cool,239.959,12.19320,12時間11分36秒,6時間18分24秒
吹越,41.022038,141.246552,cool,227.731,12.09081,12時間5分27秒,6時間24分33秒
陸奥横浜,41.086544,141.249757,cool,220.553,12.03061,12時間1分50秒,6時間28分10秒
有畑,41.131818,141.276421,eco,215.449,11.98777,11時間59分16秒,6時間30分44秒
近川,41.191687,141.279021,eco,208.788,11.93181,11時間55分55秒,6時間34分5秒
金谷沢,41.228854,141.248432,eco,204.746,11.89784,11時間53分52秒,6時間36分8秒
赤川,41.267829,141.209339,heat,200.577,11.86278,11時間51分46秒,6時間38分14秒
下北,41.28288,141.18989,heat,199.006,11.84956,11時間50分58秒,6時間39分2秒
大湊,41.280344,141.161772,heat,199.455,11.85334,11時間51分12秒,6時間38分48秒
能代,40.206577,140.033084,heat,336.543,12.99274,12時間59分34秒,5時間30分26秒
向能代,40.225669,140.039111,heat,334.368,12.97496,12時間58分30秒,5時間31分30秒
北能代,40.254138,140.033835,heat,331.513,12.95160,12時間57分6秒,5時間32分54秒
鳥形,40.271433,140.036931,heat,329.609,12.93601,12時間56分10秒,5時間33分50秒
沢目,40.295929,140.037824,heat,327.008,12.91470,12時間54分53秒,5時間35分7秒
東八森,40.332086,140.032462,cool,323.361,12.88479,12時間53分5秒,5時間36分55秒
八森,40.37135,140.017882,cool,319.661,12.85442,12時間51分16秒,5時間38分44秒
滝ノ間,40.379967,140.00221,cool,319.213,12.85074,12時間51分3秒,5時間38分57秒
あきた白神,40.386583,139.987793,eco,318.944,12.84853,12時間50分55秒,5時間39分5秒
岩館,40.406241,139.966258,eco,317.537,12.83697,12時間50分13秒,5時間39分47秒
大間越,40.492407,139.950062,cool,309.098,12.76752,12時間46分3秒,5時間43分57秒
白神岳登山口,40.513551,139.950318,cool,306.905,12.74945,12時間44分58秒,5時間45分2秒
松神,40.534902,139.946556,cool,304.820,12.73226,12時間43分56秒,5時間46分4秒
十二湖,40.551539,139.941986,cool,303.251,12.71932,12時間43分10秒,5時間46分50秒
陸奥岩崎,40.583333,139.924183,cool,300.557,12.69708,12時間41分49秒,5時間48分11秒
陸奥沢辺,40.586175,139.894991,cool,301.225,12.70259,12時間42分9秒,5時間47分51秒
ウェスパ椿山,40.592913,139.871157,cool,301.334,12.70349,12時間42分13秒,5時間47分47秒
艫作,40.608534,139.864856,cool,299.956,12.69212,12時間41分32秒,5時間48分28秒
横磯,40.629891,139.89091,cool,296.898,12.66685,12時間40分1秒,5時間49分59秒
深浦,40.650239,139.929372,cool,293.534,12.63904,12時間38分21秒,5時間51分39秒
広戸,40.67434,139.955586,cool,290.202,12.61146,12時間36分41秒,5時間53分19秒
追良瀬,40.686114,139.970298,cool,288.513,12.59748,12時間35分51秒,5時間54分9秒
驫木,40.707218,139.982954,cool,285.936,12.57613,12時間34分34秒,5時間55分26秒
風合瀬,40.731826,139.99432,cool,283.043,12.55214,12時間33分8秒,5時間56分52秒
大戸瀬,40.759325,140.033596,cool,278.944,12.51813,12時間31分5秒,5時間58分55秒
千畳敷,40.767769,140.054832,cool,277.393,12.50526,12時間30分19秒,5時間59分41秒
北金ヶ沢,40.745995,140.095052,cool,278.376,12.51342,12時間30分48秒,5時間59分12秒
陸奥柳田,40.740616,140.123243,heat,278.072,12.51089,12時間30分39秒,5時間59分21秒
陸奥赤石,40.76156,140.162057,heat,274.734,12.48317,12時間28分59秒,6時間1分1秒
鰺ヶ沢,40.775255,140.220589,heat,271.605,12.45716,12時間27分26秒,6時間2分34秒
鳴沢,40.782189,140.267617,heat,269.562,12.44017,12時間26分25秒,6時間3分35秒
越水,40.787258,140.298628,heat,268.186,12.42873,12時間25分43秒,6時間4分17秒
陸奥森田,40.781738,140.339033,heat,267.704,12.42471,12時間25分29秒,6時間4分31秒
中田(青森),40.787424,140.364505,heat,266.450,12.41428,12時間24分51秒,6時間5分9秒
木造,40.802482,140.387775,eco,264.267,12.39610,12時間23分46秒,6時間6分14秒
五所川原,40.809124,140.44776,eco,262.106,12.37810,12時間22分41秒,6時間7分19秒
津軽五所川原,40.809684,140.448489,eco,262.029,12.37746,12時間22分39秒,6時間7分21秒
陸奥鶴田,40.757544,140.435276,eco,267.907,12.42640,12時間25分35秒,6時間4分25秒
鶴泊,40.736026,140.437616,eco,270.152,12.44508,12時間26分42秒,6時間3分18秒
板柳,40.69726,140.461785,eco,273.755,12.47504,12時間28分30秒,6時間1分30秒
林崎,40.675355,140.480401,eco,275.699,12.49119,12時間29分28秒,6時間0分32秒
藤崎(青森),40.654047,140.499531,eco,277.583,12.50683,12時間30分25秒,5時間59分35秒
油川,40.857035,140.690476,cool,251.901,12.29300,12時間17分35秒,6時間12分25秒
津軽宮田,40.887184,140.674579,cool,248.918,12.26809,12時間16分5秒,6時間13分55秒
奥内,40.903044,140.672382,cool,247.239,12.25406,12時間15分15秒,6時間14分45秒
左堰,40.917214,140.665929,cool,245.826,12.24226,12時間14分32秒,6時間15分28秒
後潟,40.931519,140.662734,heat,244.338,12.22982,12時間13分47秒,6時間16分13秒
中沢,40.949044,140.656244,heat,242.568,12.21502,12時間12分54秒,6時間17分6秒
蓬田,40.969042,140.654533,heat,240.439,12.19722,12時間11分50秒,6時間18分10秒
郷沢,40.987682,140.652399,heat,238.468,12.18073,12時間10分51秒,6時間19分9秒
瀬辺地,41.007869,140.648179,heat,236.373,12.16319,12時間9分47秒,6時間20分13秒
蟹田,41.038274,140.642565,eco,233.210,12.13671,12時間8分12秒,6時間21分48秒
大平,41.065866,140.559375,eco,232.076,12.12721,12時間7分38秒,6時間22分22秒
大川平,41.163204,140.507592,eco,222.991,12.05106,12時間3分4秒,6時間26分56秒
今別,41.179741,140.490448,eco,221.690,12.04015,12時間2分25秒,6時間27分35秒
津軽浜名,41.180521,140.47185,eco,222.103,12.04361,12時間2分37秒,6時間27分23秒
三厩,41.185404,140.444482,eco,222.338,12.04558,12時間2分44秒,6時間27分16秒
長苗代,40.52146,141.465907,eco,283.391,12.55503,12時間33分18秒,5時間56分42秒
本八戸,40.516286,141.488762,eco,284.036,12.56038,12時間33分37秒,5時間56分23秒
小中野,40.518767,141.510032,eco,283.837,12.55873,12時間33分31秒,5時間56分29秒
陸奥湊,40.52335,141.527652,eco,283.400,12.55510,12時間33分18秒,5時間56分42秒
白銀,40.522031,141.541648,eco,283.608,12.55683,12時間33分25秒,5時間56分35秒
鮫,40.530244,141.554891,heat,282.760,12.54980,12時間32分59秒,5時間57分1秒
陸奥白浜,40.516636,141.592299,heat,284.472,12.56399,12時間33分50秒,5時間56分10秒
種差海岸,40.506951,141.607367,heat,285.637,12.57365,12時間34分25秒,5時間55分35秒
大久喜,40.495135,141.622958,cool,287.046,12.58532,12時間35分7秒,5時間54分53秒
金浜,40.475994,141.637366,cool,289.263,12.60369,12時間36分13秒,5時間53分47秒
大蛇,40.467251,141.650773,cool,290.326,12.61249,12時間36分45秒,5時間53分15秒
階上,40.456834,141.664958,cool,291.583,12.62289,12時間37分22秒,5時間52分38秒
角の浜,40.444478,141.681773,cool,293.079,12.63527,12時間38分7秒,5時間51分53秒
平内,40.42552,141.699272,cool,295.316,12.65377,12時間39分14秒,5時間50分46秒
種市,40.410384,141.715232,cool,297.123,12.66871,12時間40分7秒,5時間49分53秒
玉川(岩手),40.380424,141.735117,cool,300.609,12.69751,12時間41分51秒,5時間48分9秒
宿戸,40.366129,141.746683,cool,302.293,12.71141,12時間42分41秒,5時間47分19秒
陸中八木,40.345485,141.766517,cool,304.757,12.73174,12時間43分54秒,5時間46分6秒
有家,40.324007,141.773031,eco,307.192,12.75182,12時間45分7秒,5時間44分53秒
陸中中野,40.305165,141.787768,eco,309.415,12.77014,12時間46分12秒,5時間43分48秒
侍浜,40.261375,141.760575,eco,314.000,12.80788,12時間48分28秒,5時間41分32秒
陸中夏井,40.207747,141.791906,heat,320.218,12.85899,12時間51分32秒,5時間38分28秒
久慈,40.190391,141.770891,heat,321.941,12.87314,12時間52分23秒,5時間37分37秒
茂市,39.620619,141.799288,cool,385.221,13.38728,13時間23分14秒,5時間6分46秒
岩手刈屋,39.642688,141.759296,unknown,382.467,13.36514,13時間21分55秒,5時間8分5秒
中里(岩手),39.661836,141.736067,unknown,380.177,13.34672,13時間20分48秒,5時間9分12秒
岩手和井内,39.679905,141.715705,unknown,378.034,13.32946,13時間19分46秒,5時間10分14秒
押角,39.724029,141.693181,unknown,372.995,13.28883,13時間17分20秒,5時間12分40秒
岩手大川,39.800208,141.671909,unknown,364.414,13.21946,13時間13分10秒,5時間16分50秒
浅内,39.819482,141.727016,unknown,362.644,13.20513,13時間12分18秒,5時間17分42秒
二升石,39.836739,141.745741,unknown,360.871,13.19076,13時間11分27秒,5時間18分33秒
岩泉,39.845044,141.786446,unknown,360.277,13.18595,13時間11分9秒,5時間18分51秒
一ノ関,38.926514,141.138177,cool,460.925,13.98573,13時間59分9秒,4時間30分51秒
真滝,38.908239,141.17793,cool,462.839,14.00059,14時間0分2秒,4時間29分58秒
陸中門崎,38.916908,141.251226,cool,461.724,13.99193,13時間59分31秒,4時間30分29秒
岩ノ下,38.947699,141.245342,cool,458.310,13.96540,13時間57分55秒,4時間32分5秒
陸中松川,38.977237,141.238046,cool,455.038,13.93994,13時間56分24秒,4時間33分36秒
猊鼻渓,38.988939,141.25327,cool,453.713,13.92961,13時間55分47秒,4時間34分13秒
柴宿,38.996719,141.272312,cool,452.822,13.92267,13時間55分22秒,4時間34分38秒
摺沢,38.996016,141.321151,cool,452.859,13.92296,13時間55分23秒,4時間34分37秒
千厩,38.924873,141.34563,cool,460.763,13.98447,13時間59分4秒,4時間30分56秒
小梨,38.932493,141.38418,cool,459.924,13.97795,13時間58分41秒,4時間31分19秒
矢越,38.935224,141.429029,cool,459.659,13.97589,13時間58分33秒,4時間31分27秒
折壁,38.939428,141.452346,cool,459.223,13.97250,13時間58分21秒,4時間31分39秒
新月,38.915598,141.488796,cool,461.939,13.99360,13時間59分37秒,4時間30分23秒
気仙沼,38.910031,141.558893,eco,462.742,13.99983,13時間59分59秒,4時間30分1秒
鹿折唐桑,38.915928,141.579468,unknown,462.156,13.99529,13時間59分43秒,4時間30分17秒
上鹿折,38.960163,141.566825,unknown,457.198,13.95675,13時間57分24秒,4時間32分36秒
陸前矢作,39.022654,141.579456,unknown,450.298,13.90297,13時間54分11秒,4時間35分49秒
竹駒,39.033908,141.609486,unknown,449.162,13.89410,13時間53分39秒,4時間36分21秒
陸前高田,39.014915,141.629227,unknown,451.354,13.91122,13時間54分40秒,4時間35分20秒
脇ノ沢,39.011884,141.671754,unknown,451.889,13.91539,13時間54分55秒,4時間35分5秒
小友,38.989303,141.699506,unknown,454.539,13.93605,13時間56分10秒,4時間33分50秒
細浦,39.016025,141.713726,unknown,451.653,13.91355,13時間54分49秒,4時間35分11秒
下船渡,39.038328,141.720863,unknown,449.219,13.89455,13時間53分40秒,4時間36分20秒
大船渡,39.063546,141.720803,unknown,446.421,13.87267,13時間52分22秒,4時間37分38秒
盛,39.086372,141.710734,eco,443.830,13.85239,13時間51分9秒,4時間38分51秒
花巻,39.393182,141.110458,cool,409.182,13.57885,13時間34分44秒,4時間55分16秒
似内,39.406819,141.140889,cool,407.550,13.56586,13時間33分57秒,4時間56分3秒
新花巻,39.405839,141.17302,cool,407.553,13.56588,13時間33分57秒,4時間56分3秒
小山田,39.4086,141.193999,cool,407.186,13.56296,13時間33分47秒,4時間56分13秒
土沢,39.383381,141.232488,cool,409.898,13.58454,13時間35分4秒,4時間54分56秒
晴山,39.366617,141.257892,cool,411.716,13.59900,13時間35分56秒,4時間54分4秒
岩根橋,39.355264,141.318795,cool,412.914,13.60851,13時間36分31秒,4時間53分29秒
宮守,39.351066,141.350271,cool,413.372,13.61215,13時間36分44秒,4時間53分16秒
柏木平,39.30606,141.379862,cool,418.384,13.65191,13時間39分7秒,4時間50分53秒
鱒沢,39.300158,141.399252,cool,419.053,13.65721,13時間39分26秒,4時間50分34秒
荒谷前,39.309928,141.428507,cool,417.997,13.64884,13時間38分56秒,4時間51分4秒
岩手二日町,39.323441,141.45606,cool,416.537,13.63727,13時間38分14秒,4時間51分46秒
綾織,39.328422,141.476845,cool,416.024,13.63320,13時間38分0秒,4時間52分0秒
遠野,39.332529,141.53072,heat,415.706,13.63068,13時間37分50秒,4時間52分10秒
青笹,39.311482,141.568957,heat,418.172,13.65023,13時間39分1秒,4時間50分59秒
岩手上郷,39.284658,141.585834,heat,421.216,13.67434,13時間40分28秒,4時間49分32秒
平倉,39.264682,141.595661,heat,423.474,13.69220,13時間41分32秒,4時間48分28秒
足ヶ瀬,39.254766,141.645807,heat,424.798,13.70266,13時間42分10秒,4時間47分50秒
上有住,39.242013,141.681522,heat,426.397,13.71529,13時間42分55秒,4時間47分5秒
陸中大橋,39.280451,141.718436,eco,422.346,13.68328,13時間41分0秒,4時間49分0秒
洞泉,39.250671,141.760388,eco,425.917,13.71150,13時間42分41秒,4時間47分19秒
松倉,39.256458,141.801484,eco,425.566,13.70873,13時間42分31秒,4時間47分29秒
小佐野,39.264464,141.836515,eco,424.949,13.70386,13時間42分14秒,4時間47分46秒
釜石,39.273321,141.87267,eco,424.269,13.69848,13時間41分55秒,4時間48分5秒
北上,39.281196,141.121221,eco,421.579,13.67721,13時間40分38秒,4時間49分22秒
柳原(岩手),39.294597,141.111671,heat,420.128,13.66573,13時間39分57秒,4時間50分3秒
江釣子,39.298349,141.075749,heat,419.865,13.66364,13時間39分49秒,4時間50分11秒
藤根,39.301064,141.039571,heat,419.740,13.66265,13時間39分46秒,4時間50分14秒
立川目,39.307876,140.997144,heat,419.219,13.65853,13時間39分31秒,4時間50分29秒
横川目,39.309255,140.972143,eco,419.219,13.65853,13時間39分31秒,4時間50分29秒
岩沢,39.301016,140.931616,eco,420.402,13.66790,13時間40分4秒,4時間49分56秒
和賀仙人,39.308523,140.909485,eco,419.728,13.66256,13時間39分45秒,4時間50分15秒
ゆだ錦秋湖,39.295513,140.835343,cool,421.758,13.67863,13時間40分43秒,4時間49分17秒
ほっとゆだ,39.314493,140.775647,cool,420.200,13.66630,13時間39分59秒,4時間50分1秒
ゆだ高原,39.301074,140.737205,cool,422.062,13.68103,13時間40分52秒,4時間49分8秒
黒沢(JR),39.276243,140.699619,heat,425.195,13.70580,13時間42分21秒,4時間47分39秒
小松川,39.293403,140.646094,heat,423.901,13.69558,13時間41分44秒,4時間48分16秒
平石(秋田),39.291678,140.628457,unknown,424.299,13.69872,13時間41分55秒,4時間48分5秒
相野々,39.27805,140.619067,cool,425.912,13.71146,13時間42分41秒,4時間47分19秒
矢美津,39.291283,140.592099,unknown,424.786,13.70257,13時間42分9秒,4時間47分51秒
盛岡,39.701547,141.136599,heat,374.826,13.30360,13時間18分13秒,5時間11分47秒
前潟,39.713,141.101067,heat,373.707,13.29457,13時間17分40秒,5時間12分20秒
大釜,39.711586,141.072202,heat,374.006,13.29699,13時間17分49秒,5時間12分11秒
小岩井,39.709731,141.02465,eco,374.479,13.30080,13時間18分3秒,5時間11分57秒
雫石,39.689244,140.974762,eco,377.075,13.32173,13時間19分18秒,5時間10分42秒
春木場,39.693396,140.943954,cool,376.837,13.31981,13時間19分11秒,5時間10分49秒
赤渕,39.685112,140.907222,cool,378.042,13.32952,13時間19分46秒,5時間10分14秒
田沢湖,39.700363,140.722139,heat,378.183,13.33066,13時間19分50秒,5時間10分10秒
刺巻,39.668563,140.69196,heat,382.041,13.36171,13時間21分42秒,5時間8分18秒
神代(秋田),39.622667,140.627358,heat,387.896,13.40876,13時間24分32秒,5時間5分28秒
生田(秋田),39.612065,140.601203,heat,389.406,13.42087,13時間25分15秒,5時間4分45秒
角館,39.591716,140.570988,heat,392.052,13.44208,13時間26分31秒,5時間3分29秒
鶯野,39.568536,140.557901,heat,394.777,13.46390,13時間27分50秒,5時間2分10秒
羽後長野,39.546003,140.540448,cool,397.495,13.48564,13時間29分8秒,5時間0分52秒
鑓見内,39.519323,140.527744,cool,400.602,13.51046,13時間30分38秒,4時間59分22秒
羽後四ツ屋,39.501511,140.511886,cool,402.783,13.52787,13時間31分40秒,4時間58分20秒
北大曲,39.48944,140.497966,eco,404.309,13.54004,13時間32分24秒,4時間57分36秒
好摩,39.874037,141.173685,heat,355.527,13.14740,13時間8分51秒,5時間21分9秒
東大更,39.902621,141.142537,heat,352.469,13.12255,13時間7分21秒,5時間22分39秒
大更,39.913746,141.100808,heat,351.422,13.11404,13時間6分51秒,5時間23分9秒
平館,39.950886,141.08531,heat,347.379,13.08114,13時間4分52秒,5時間25分8秒
北森,39.956785,141.071652,heat,346.798,13.07641,13時間4分35秒,5時間25分25秒
松尾八幡平,39.969241,141.043903,heat,345.579,13.06648,13時間3分59秒,5時間26分1秒
安比高原,40.012587,140.997239,heat,341.085,13.02983,13時間1分47秒,5時間28分13秒
赤坂田,40.048464,141.00394,cool,337.062,12.99698,12時間59分49秒,5時間30分11秒
小屋の畑,40.076539,141.020673,cool,333.834,12.97059,12時間58分14秒,5時間31分46秒
荒屋新町,40.097682,141.049196,cool,331.302,12.94987,12時間57分0秒,5時間33分0秒
横間,40.107475,141.027151,eco,330.361,12.94217,12時間56分32秒,5時間33分28秒
田山,40.139674,140.944126,eco,327.432,12.91818,12時間55分5秒,5時間34分55秒
兄畑,40.115869,140.88302,eco,330.625,12.94433,12時間56分40秒,5時間33分20秒
湯瀬温泉,40.122384,140.840292,cool,330.342,12.94201,12時間56分31秒,5時間33分29秒
八幡平,40.142881,140.804496,cool,328.479,12.92676,12時間55分36秒,5時間34分24秒
陸中大里,40.158574,140.793477,cool,326.879,12.91364,12時間54分49秒,5時間35分11秒
鹿角花輪,40.188453,140.785088,heat,323.689,12.88749,12時間53分15秒,5時間36分45秒
柴平,40.230751,140.787941,heat,319.000,12.84899,12時間50分56秒,5時間39分4秒
十和田南,40.256069,140.770716,heat,316.428,12.82785,12時間49分40秒,5時間40分20秒
末広,40.229788,140.737251,heat,319.750,12.85515,12時間51分19秒,5時間38分41秒
土深井,40.222452,140.713142,heat,320.880,12.86443,12時間51分52秒,5時間38分8秒
沢尻,40.230342,140.693288,heat,320.291,12.85959,12時間51分35秒,5時間38分25秒
十二所,40.21429,140.668211,heat,322.411,12.87700,12時間52分37秒,5時間37分23秒
大滝温泉,40.209751,140.639625,heat,323.333,12.88456,12時間53分4秒,5時間36分56秒
扇田,40.229235,140.572472,eco,322.274,12.87587,12時間52分33秒,5時間37分27秒
東大館,40.266005,140.554745,eco,318.568,12.84544,12時間50分44秒,5時間39分16秒
上盛岡,39.71146,141.147937,heat,373.681,13.29436,13時間17分40秒,5時間12分20秒
山岸,39.71596,141.171401,heat,373.098,13.28966,13時間17分23秒,5時間12分37秒
上米内,39.743855,141.203825,heat,369.899,13.26383,13時間15分50秒,5時間14分10秒
大志田,39.741806,141.280843,unknown,369.970,13.26440,13時間15分52秒,5時間14分8秒
浅岸,39.711208,141.339147,unknown,373.328,13.29152,13時間17分29秒,5時間12分31秒
区界,39.65177,141.351352,heat,379.935,13.34477,13時間20分41秒,5時間9分19秒
松草,39.635918,141.437421,heat,381.767,13.35951,13時間21分34秒,5時間8分26秒
平津戸,39.623408,141.511222,unknown,383.323,13.37202,13時間22分19秒,5時間7分41秒
川内(岩手),39.640744,141.597548,heat,381.717,13.35911,13時間21分33秒,5時間8分27秒
箱石,39.617115,141.625829,heat,384.475,13.38128,13時間22分53秒,5時間7分7秒
陸中川井,39.597397,141.68153,heat,386.967,13.40130,13時間24分5秒,5時間5分55秒
腹帯,39.604539,141.767434,heat,386.753,13.39958,13時間23分58秒,5時間6分2秒
蟇目,39.629341,141.838876,heat,384.592,13.38222,13時間22分56秒,5時間7分4秒
花原市,39.630233,141.861308,heat,384.696,13.38306,13時間22分59秒,5時間7分1秒
千徳,39.632251,141.9124,eco,384.968,13.38524,13時間23分7秒,5時間6分53秒
宮古,39.640287,141.946454,eco,384.438,13.38099,13時間22分52秒,5時間7分8秒
新津,37.800383,139.121445,cool,615.370,15.13238,15時間7分57秒,3時間22分3秒
京ヶ瀬,37.817616,139.178322,cool,612.080,15.10918,15時間6分33秒,3時間23分27秒
水原,37.836712,139.217237,cool,609.066,15.08787,15時間5分16秒,3時間24分44秒
神山,37.862586,139.244691,cool,605.623,15.06347,15時間3分48秒,3時間26分12秒
月岡(新潟),37.889334,139.272488,cool,602.081,15.03830,15時間2分18秒,3時間27分42秒
中浦,37.912202,139.302689,cool,598.899,15.01563,15時間0分56秒,3時間29分4秒
新発田,37.94412,139.335189,cool,594.700,14.98564,14時間59分8秒,3時間30分52秒
加治,37.976411,139.358535,cool,590.685,14.95687,14時間57分25秒,3時間32分35秒
金塚,38.020178,139.37949,cool,585.501,14.91961,14時間55分11秒,3時間34分49秒
中条,38.049342,139.397541,cool,581.950,14.89400,14時間53分38秒,3時間36分22秒
平木田,38.094338,139.427835,cool,576.413,14.85395,14時間51分14秒,3時間38分46秒
坂町,38.119277,139.445838,heat,573.317,14.83149,14時間49分53秒,3時間40分7秒
平林(新潟),38.150027,139.459045,heat,569.713,14.80528,14時間48分19秒,3時間41分41秒
岩船町,38.183564,139.459643,heat,566.109,14.77901,14時間46分44秒,3時間43分16秒
村上(新潟),38.219851,139.463306,heat,562.140,14.75000,14時間45分0秒,3時間45分0秒
間島,38.273078,139.450229,heat,556.764,14.71058,14時間42分38秒,3時間47分22秒
越後早川,38.316185,139.449887,heat,552.169,14.67678,14時間40分36秒,3時間49分24秒
桑川,38.375162,139.458838,eco,545.656,14.62870,14時間37分43秒,3時間52分17秒
今川(新潟),38.410081,139.468389,eco,541.696,14.59936,14時間35分58秒,3時間54分2秒
越後寒川,38.448689,139.489948,eco,537.048,14.56484,14時間33分53秒,3時間56分7秒
勝木,38.490315,139.517468,eco,531.933,14.52673,14時間31分36秒,3時間58分24秒
府屋,38.513324,139.530452,eco,529.160,14.50601,14時間30分22秒,3時間59分38秒
鼠ヶ関,38.555433,139.548827,eco,524.218,14.46901,14時間28分8秒,4時間1分52秒
小岩川,38.590399,139.56583,eco,520.071,14.43788,14時間26分16秒,4時間3分44秒
あつみ温泉,38.624217,139.587955,eco,515.925,14.40668,14時間24分24秒,4時間5分36秒
五十川,38.670658,139.616182,eco,510.283,14.36409,14時間21分51秒,4時間8分9秒
小波渡,38.692484,139.649836,eco,507.148,14.34036,14時間20分25秒,4時間9分35秒
三瀬,38.699448,139.673643,eco,505.842,14.33047,14時間19分50秒,4時間10分10秒
羽前水沢,38.713444,139.731372,eco,503.011,14.30899,14時間18分32秒,4時間11分28秒
羽前大山,38.742155,139.768194,eco,499.098,14.27925,14時間16分45秒,4時間13分15秒
鶴岡,38.74011,139.83538,eco,497.846,14.26972,14時間16分11秒,4時間13分49秒
藤島,38.768646,139.894087,eco,493.528,14.23680,14時間14分12秒,4時間15分48秒
西袋,38.811528,139.907754,eco,488.615,14.19924,14時間11分57秒,4時間18分3秒
余目,38.844321,139.911348,eco,485.001,14.17156,14時間10分18秒,4時間19分42秒
北余目,38.867538,139.908074,heat,482.565,14.15286,14時間9分10秒,4時間20分50秒
砂越,38.895195,139.907345,heat,479.597,14.13005,14時間7分48秒,4時間22分12秒
東酒田,38.907518,139.875495,heat,478.952,14.12509,14時間7分30秒,4時間22分30秒
酒田,38.922194,139.845987,heat,478.020,14.11792,14時間7分4秒,4時間22分56秒
本楯,38.968648,139.882081,heat,472.230,14.07328,14時間4分24秒,4時間25分36秒
南鳥海,38.98736,139.898662,cool,469.855,14.05493,14時間3分18秒,4時間26分42秒
遊佐,39.015943,139.905161,cool,466.638,14.03003,14時間1分48秒,4時間28分12秒
吹浦,39.069934,139.878762,cool,461.417,13.98955,13時間59分22秒,4時間30分38秒
女鹿,39.098807,139.880963,cool,458.267,13.96507,13時間57分54秒,4時間32分6秒
小砂川,39.137507,139.885692,eco,454.007,13.93190,13時間55分55秒,4時間34分5秒
上浜,39.164738,139.902823,eco,450.698,13.90610,13時間54分22秒,4時間35分38秒
象潟,39.2078,139.902205,eco,446.092,13.87010,13時間52分12秒,4時間37分48秒
金浦,39.256183,139.920662,eco,440.483,13.82616,13時間49分34秒,4時間40分26秒
仁賀保,39.28979,139.964596,eco,435.888,13.79007,13時間47分24秒,4時間42分36秒
西目,39.347536,140.018518,eco,428.494,13.73184,13時間43分55秒,4時間46分5秒
羽後本荘,39.386877,140.057632,eco,423.417,13.69175,13時間41分30秒,4時間48分30秒
羽後岩谷,39.442075,140.0906,eco,416.770,13.63912,13時間38分21秒,4時間51分39秒
折渡,39.476423,140.091097,eco,413.058,13.60966,13時間36分35秒,4時間53分25秒
羽後亀田,39.493884,140.063032,heat,411.783,13.59953,13時間35分58秒,4時間54分2秒
岩城みなと,39.545487,140.055122,heat,406.412,13.55680,13時間33分24秒,4時間56分36秒
道川,39.56054,140.057049,heat,404.752,13.54357,13時間32分37秒,4時間57分23秒
下浜,39.619678,140.064567,cool,398.237,13.49157,13時間29分30秒,5時間0分30秒
桂根,39.647566,140.066482,cool,395.202,13.46730,13時間28分2秒,5時間1分58秒
新屋(秋田),39.677493,140.087799,cool,391.511,13.43775,13時間26分16秒,5時間3分44秒
羽後牛島,39.695834,140.116467,cool,388.904,13.41684,13時間25分1秒,5時間4分59秒
出戸浜,39.844473,140.024374,cool,375.147,13.30619,13時間18分22秒,5時間11分38秒
上二田,39.869089,140.00409,cool,373.030,13.28911,13時間17分21秒,5時間12分39秒
二田,39.88174,139.987171,cool,372.113,13.28171,13時間16分54秒,5時間13分6秒
天王,39.898782,139.963609,heat,370.911,13.27200,13時間16分19秒,5時間13分41秒
船越,39.90473,139.946804,heat,370.720,13.27046,13時間16分14秒,5時間13分46秒
脇本,39.915172,139.902657,heat,370.794,13.27106,13時間16分16秒,5時間13分44秒
羽立,39.904569,139.86205,eco,373.022,13.28905,13時間17分21秒,5時間12分39秒
男鹿,39.884571,139.848647,eco,375.496,13.30900,13時間18分32秒,5時間11分28秒
福島(福島),37.754123,140.45968,heat,595.730,14.99300,14時間59分35秒,3時間30分25秒
笹木野,37.765926,140.425985,heat,594.795,14.98632,14時間59分11秒,3時間30分49秒
庭坂,37.771537,140.389847,heat,594.586,14.98482,14時間59分5秒,3時間30分55秒
赤岩,37.80567,140.335545,unknown,591.472,14.96252,14時間57分45秒,3時間32分15秒
板谷,37.811627,140.268815,eco,591.662,14.96388,14時間57分50秒,3時間32分10秒
峠,37.811935,140.236041,eco,592.063,14.96675,14時間58分0秒,3時間32分0秒
大沢(山形),37.839775,140.19801,eco,589.527,14.94856,14時間56分55秒,3時間33分5秒
関根,37.864592,140.146284,eco,587.544,14.93431,14時間56分4秒,3時間33分56秒
米沢,37.909478,140.128209,eco,582.892,14.90080,14時間54分3秒,3時間35分57秒
置賜,37.954093,140.142496,eco,577.790,14.86393,14時間51分50秒,3時間38分10秒
高畠,37.992314,140.15281,eco,573.448,14.83244,14時間49分57秒,3時間40分3秒
赤湯,38.047081,140.148978,eco,567.505,14.78919,14時間47分21秒,3時間42分39秒
中川(山形),38.093349,140.203553,eco,561.626,14.74624,14時間44分46秒,3時間45分14秒
羽前中山,38.124158,140.218318,heat,558.034,14.71991,14時間43分12秒,3時間46分48秒
かみのやま温泉,38.152259,140.27867,heat,554.099,14.69099,14時間41分28秒,3時間48分32秒
茂吉記念館前,38.171249,140.298167,heat,551.747,14.67367,14時間40分25秒,3時間49分35秒
蔵王,38.20592,140.303299,eco,547.869,14.64506,14時間38分42秒,3時間51分18秒
山形,38.248098,140.327253,eco,542.912,14.60838,14時間36分30秒,3時間53分30秒
北山形,38.265902,140.332658,eco,540.884,14.59334,14時間35分36秒,3時間54分24秒
羽前千歳,38.287313,140.342168,eco,538.404,14.57492,14時間34分30秒,3時間55分30秒
南出羽,38.302834,140.344692,heat,536.665,14.56199,14時間33分43秒,3時間56分17秒
漆山,38.314477,140.347661,heat,535.346,14.55217,14時間33分8秒,3時間56分52秒
高擶,38.330726,140.358832,heat,533.412,14.53776,14時間32分16秒,3時間57分44秒
天童南,38.342489,140.365853,heat,532.027,14.52743,14時間31分39秒,3時間58分21秒
天童,38.35989,140.369303,heat,530.068,14.51280,14時間30分46秒,3時間59分14秒
乱川,38.386554,140.374663,heat,527.067,14.49036,14時間29分25秒,4時間0分35秒
神町,38.412276,140.378389,heat,524.191,14.46881,14時間28分8秒,4時間1分52秒
さくらんぼ東根,38.42806,140.380677,heat,522.425,14.45556,14時間27分20秒,4時間2分40秒
東根,38.450863,140.384035,heat,519.875,14.43641,14時間26分11秒,4時間3分49秒
村山(山形),38.477078,140.386399,cool,516.962,14.41449,14時間24分52秒,4時間5分8秒
袖崎,38.548259,140.391295,cool,509.075,14.35495,14時間21分18秒,4時間8分42秒
大石田,38.595916,140.375349,cool,504.055,14.31692,14時間19分1秒,4時間10分59秒
北大石田,38.629487,140.371234,cool,500.426,14.28935,14時間17分22秒,4時間12分38秒
芦沢,38.655258,140.361016,cool,497.740,14.26891,14時間16分8秒,4時間13分52秒
舟形,38.691583,140.316157,cool,494.403,14.24348,14時間14分37秒,4時間15分23秒
仙台(JR),38.260027,140.882158,eco,536.146,14.55812,14時間33分29秒,3時間56分31秒
東照宮,38.277262,140.88682,eco,534.206,14.54368,14時間32分37秒,3時間57分23秒
北仙台,38.281594,140.869885,eco,533.832,14.54089,14時間32分27秒,3時間57分33秒
北山(宮城),38.285154,140.851876,eco,533.554,14.53882,14時間32分20秒,3時間57分40秒
東北福祉大前,38.280468,140.842683,eco,534.136,14.54315,14時間32分35秒,3時間57分25秒
国見(宮城),38.274783,140.8335,eco,534.828,14.54831,14時間32分54秒,3時間57分6秒
葛岡,38.268816,140.818583,eco,535.593,14.55401,14時間33分14秒,3時間56分46秒
陸前落合,38.273379,140.789896,heat,535.296,14.55180,14時間33分6秒,3時間56分54秒
愛子,38.272661,140.761517,heat,535.592,14.55400,14時間33分14秒,3時間56分46秒
陸前白沢,38.278117,140.702333,heat,535.473,14.55311,14時間33分11秒,3時間56分49秒
熊ヶ根,38.297947,140.680633,cool,533.469,14.53818,14時間32分17秒,3時間57分43秒
作並,38.317738,140.632467,cool,531.727,14.52519,14時間31分31秒,3時間58分29秒
奥新川,38.325953,140.594329,cool,531.194,14.52121,14時間31分16秒,3時間58分44秒
面白山高原,38.333071,140.49712,cool,531.454,14.52315,14時間31分23秒,3時間58分37秒
山寺,38.309561,140.434773,cool,534.778,14.54794,14時間32分53秒,3時間57分7秒
高瀬(山形),38.301677,140.396074,cool,536.126,14.55798,14時間33分29秒,3時間56分31秒
楯山,38.301632,140.370598,heat,536.457,14.56044,14時間33分38秒,3時間56分22秒
東金井,38.277058,140.302666,eco,540.065,14.58726,14時間35分14秒,3時間54分46秒
羽前山辺,38.294756,140.271571,eco,538.558,14.57606,14時間34分34秒,3時間55分26秒
羽前金沢,38.320837,140.270516,heat,535.712,14.55489,14時間33分18秒,3時間56分42秒
羽前長崎,38.332969,140.273018,heat,534.346,14.54472,14時間32分41秒,3時間57分19秒
南寒河江,38.356033,140.27767,cool,531.749,14.52535,14時間31分31秒,3時間58分29秒
寒河江,38.372548,140.274487,cool,529.983,14.51216,14時間30分44秒,3時間59分16秒
西寒河江,38.379627,140.26662,cool,529.321,14.50722,14時間30分26秒,3時間59分34秒
羽前高松,38.397494,140.248666,cool,527.626,14.49454,14時間29分40秒,4時間0分20秒
柴橋,38.380425,140.227695,cool,529.809,14.51086,14時間30分39秒,3時間59分21秒
左沢,38.382223,140.208132,cool,529.908,14.51160,14時間30分42秒,3時間59分18秒
南米沢,37.896043,140.108364,cool,584.662,14.91357,14時間54分49秒,3時間35分11秒
西米沢,37.917279,140.08481,cool,582.699,14.89941,14時間53分58秒,3時間36分2秒
成島(山形),37.94335,140.075584,cool,579.990,14.87984,14時間52分47秒,3時間37分13秒
中郡(山形),37.969109,140.067286,cool,577.303,14.86040,14時間51分37秒,3時間38分23秒
羽前小松,38.004721,140.048503,cool,573.710,14.83434,14時間50分4秒,3時間39分56秒
犬川,38.025333,140.052038,cool,571.401,14.81756,14時間49分3秒,3時間40分57秒
今泉,38.056697,140.04412,eco,568.103,14.79355,14時間47分37秒,3時間42分23秒
萩生,38.06182,140.004207,eco,568.207,14.79431,14時間47分40秒,3時間42分20秒
羽前椿,38.038636,139.994293,eco,570.904,14.81395,14時間48分50秒,3時間41分10秒
手ノ子,38.011766,139.961264,eco,574.399,14.83935,14時間50分22秒,3時間39分38秒
羽前沼沢,38.028698,139.872497,eco,574.135,14.83743,14時間50分15秒,3時間39分45秒
伊佐領,38.05105,139.822635,heat,572.637,14.82655,14時間49分36秒,3時間40分24秒
羽前松岡,38.045391,139.780445,heat,574.063,14.83691,14時間50分13秒,3時間39分47秒
小国,38.061422,139.750167,heat,572.922,14.82862,14時間49分43秒,3時間40分17秒
越後金丸,38.066474,139.663521,cool,574.144,14.83749,14時間50分15秒,3時間39分45秒
越後片貝,38.070712,139.62239,cool,574.558,14.84050,14時間50分26秒,3時間39分34秒
越後下関,38.090037,139.560024,heat,573.837,14.83527,14時間50分7秒,3時間39分53秒
越後大島,38.099721,139.518209,heat,573.736,14.83453,14時間50分4秒,3時間39分56秒
升形,38.751646,140.24423,cool,488.934,14.20169,14時間12分6秒,4時間17分54秒
羽前前波,38.747654,140.209525,cool,489.932,14.20932,14時間12分34秒,4時間17分26秒
津谷,38.737618,140.186375,cool,491.411,14.22063,14時間13分14秒,4時間16分46秒
古口,38.737129,140.14602,cool,492.150,14.22628,14時間13分35秒,4時間16分25秒
高屋,38.752567,140.070936,eco,491.807,14.22365,14時間13分25秒,4時間16分35秒
清川,38.790152,140.020761,eco,488.668,14.19965,14時間11分59秒,4時間18分1秒
狩川,38.79367,139.976777,eco,489.144,14.20329,14時間12分12秒,4時間17分48秒
南野,38.81813,139.944742,eco,487.141,14.18796,14時間11分17秒,4時間18分43秒
小牛田,38.541111,141.064355,eco,504.011,14.31658,14時間19分0秒,4時間11分0秒
北浦(宮城),38.55985,141.02305,eco,502.108,14.30213,14時間18分8秒,4時間11分52秒
陸前谷地,38.565152,140.999453,eco,501.632,14.29852,14時間17分55秒,4時間12分5秒
古川,38.571192,140.967876,eco,501.125,14.29466,14時間17分41秒,4時間12分19秒
塚目,38.572474,140.937093,eco,501.156,14.29490,14時間17分42秒,4時間12分18秒
西古川,38.578214,140.895416,eco,500.775,14.29200,14時間17分31秒,4時間12分29秒
東大崎,38.605627,140.897015,eco,497.725,14.26880,14時間16分8秒,4時間13分52秒
西大崎,38.629986,140.889638,eco,495.072,14.24858,14時間14分55秒,4時間15分5秒
岩出山,38.652508,140.871492,cool,492.697,14.23045,14時間13分50秒,4時間16分10秒
有備館,38.658135,140.86442,cool,492.122,14.22606,14時間13分34秒,4時間16分26秒
上野目,38.680563,140.859342,cool,489.672,14.20733,14時間12分26秒,4時間17分34秒
池月,38.708948,140.835732,cool,486.699,14.18457,14時間11分4秒,4時間18分56秒
川渡温泉,38.736834,140.779317,heat,484.056,14.16431,14時間9分52秒,4時間20分8秒
鳴子御殿湯,38.744612,140.737148,heat,483.560,14.16050,14時間9分38秒,4時間20分22秒
鳴子温泉,38.743193,140.715939,heat,483.910,14.16319,14時間9分47秒,4時間20分13秒
中山平温泉,38.726568,140.668103,heat,486.205,14.18079,14時間10分51秒,4時間19分9秒
堺田,38.73549,140.612902,eco,485.789,14.17760,14時間10分39秒,4時間19分21秒
赤倉温泉,38.730535,140.553647,heat,486.995,14.18684,14時間11分13秒,4時間18分47秒
立小路,38.742045,140.542678,heat,485.855,14.17810,14時間10分41秒,4時間19分19秒
最上,38.755959,140.517712,heat,484.620,14.16863,14時間10分7秒,4時間19分53秒
大堀,38.76592,140.475377,heat,484.050,14.16426,14時間9分51秒,4時間20分9秒
鵜杉,38.764962,140.453698,heat,484.435,14.16721,14時間10分2秒,4時間19分58秒
瀬見温泉,38.755192,140.419557,heat,485.962,14.17892,14時間10分44秒,4時間19分16秒
東長沢,38.718898,140.382195,heat,490.460,14.21336,14時間12分48秒,4時間17分12秒
長沢,38.709782,140.365969,heat,491.688,14.22275,14時間13分22秒,4時間16分38秒
南新庄,38.721629,140.316212,heat,491.110,14.21833,14時間13分6秒,4時間16分54秒
あおば通,38.260749,140.878514,eco,536.089,14.55770,14時間33分28秒,3時間56分32秒
仙台(仙台市交通局),38.259901,140.879928,eco,536.174,14.55833,14時間33分30秒,3時間56分30秒
榴ヶ岡,38.258792,140.893782,eco,536.212,14.55862,14時間33分31秒,3時間56分29秒
宮城野原,38.26115,140.905155,eco,535.883,14.55617,14時間33分22秒,3時間56分38秒
陸前原ノ町,38.266017,140.910638,eco,535.310,14.55190,14時間33分7秒,3時間56分53秒
苦竹,38.268722,140.918867,eco,534.963,14.54932,14時間32分58秒,3時間57分2秒
小鶴新田,38.273455,140.935446,eco,534.344,14.54470,14時間32分41秒,3時間57分19秒
福田町,38.274967,140.958252,eco,534.054,14.54254,14時間32分33秒,3時間57分27秒
陸前高砂,38.27344,140.967607,eco,534.175,14.54345,14時間32分36秒,3時間57分24秒
中野栄,38.280796,140.985236,eco,533.271,14.53671,14時間32分12秒,3時間57分48秒
多賀城,38.291656,141.005375,eco,531.970,14.52700,14時間31分37秒,3時間58分23秒
下馬,38.305833,141.014965,eco,530.352,14.51492,14時間30分54秒,3時間59分6秒
西塩釜,38.31194,141.018419,eco,529.658,14.50974,14時間30分35秒,3時間59分25秒
本塩釜,38.317715,141.022477,eco,528.999,14.50481,14時間30分17秒,3時間59分43秒
東塩釜,38.325572,141.031665,eco,528.086,14.49798,14時間29分53秒,4時間0分7秒
陸前浜田,38.350747,141.041818,heat,525.247,14.47673,14時間28分36秒,4時間1分24秒
松島海岸,38.368529,141.058523,heat,523.204,14.46141,14時間27分41秒,4時間2分19秒
高城町,38.382731,141.07344,heat,521.569,14.44913,14時間26分57秒,4時間3分3秒
手樽,38.38715,141.092846,heat,521.008,14.44492,14時間26分42秒,4時間3分18秒
陸前富山,38.386307,141.107208,heat,521.052,14.44525,14時間26分43秒,4時間3分17秒
陸前大塚,38.379078,141.12947,heat,521.785,14.45076,14時間27分3秒,4時間2分57秒
東名,38.375189,141.143978,heat,522.175,14.45369,14時間27分13秒,4時間2分47秒
野蒜,38.379071,141.15681,heat,521.709,14.45019,14時間27分1秒,4時間2分59秒
陸前小野,38.396018,141.174345,cool,519.781,14.43570,14時間26分9秒,4時間3分51秒
鹿妻,38.403315,141.190073,cool,518.934,14.42933,14時間25分46秒,4時間4分14秒
矢本,38.420432,141.209148,cool,516.991,14.41471,14時間24分53秒,4時間5分7秒
東矢本,38.427993,141.22216,cool,516.127,14.40820,14時間24分30秒,4時間5分30秒
陸前赤井,38.432442,141.238883,cool,515.605,14.40426,14時間24分15秒,4時間5分45秒
石巻あゆみ野,38.436111,141.259444,cool,515.168,14.40097,14時間24分3秒,4時間5分57秒
蛇田,38.438218,141.277652,cool,514.913,14.39905,14時間23分57秒,4時間6分3秒
陸前山下,38.437718,141.288868,cool,514.958,14.39939,14時間23分58秒,4時間6分2秒
石巻,38.43538,141.303553,cool,515.207,14.40126,14時間24分5秒,4時間5分55秒
上涌谷,38.549194,141.099473,eco,502.980,14.30876,14時間18分32秒,4時間11分28秒
涌谷,38.538151,141.127359,eco,504.115,14.31737,14時間19分3秒,4時間10分57秒
前谷地,38.512187,141.194345,eco,506.822,14.33790,14時間20分16秒,4時間9分44秒
佳景山,38.497974,141.239622,eco,508.318,14.34922,14時間20分57秒,4時間9分3秒
鹿又,38.485851,141.283016,eco,509.612,14.35901,14時間21分32秒,4時間8分28秒
曽波神,38.465993,141.287848,eco,511.815,14.37567,14時間22分32秒,4時間7分28秒
陸前稲井,38.445463,141.334847,cool,514.072,14.39270,14時間23分34秒,4時間6分26秒
渡波,38.420051,141.365123,cool,516.898,14.41401,14時間24分50秒,4時間5分10秒
万石浦,38.428855,141.368555,heat,515.920,14.40664,14時間24分24秒,4時間5分36秒
沢田,38.432397,141.38234,heat,515.530,14.40370,14時間24分13秒,4時間5分47秒
浦宿,38.436542,141.421355,heat,515.097,14.40043,14時間24分2秒,4時間5分58秒
女川,38.446764,141.443955,heat,513.986,14.39206,14時間23分31秒,4時間6分29秒
和渕,38.525772,141.220428,eco,505.260,14.32606,14時間19分34秒,4時間10分26秒
のの岳,38.552567,141.225813,eco,502.271,14.30337,14時間18分12秒,4時間11分48秒
陸前豊里,38.582481,141.244674,eco,498.915,14.27786,14時間16分40秒,4時間13分20秒
御岳堂,38.605662,141.264718,eco,496.310,14.25802,14時間15分29秒,4時間14分31秒
柳津(宮城),38.611864,141.306369,eco,495.582,14.25247,14時間15分9秒,4時間14分51秒
陸前横山,38.631019,141.354201,unknown,493.438,14.23611,14時間14分10秒,4時間15分50秒
陸前戸倉,38.64775,141.43335,unknown,491.626,14.22227,14時間13分20秒,4時間16分40秒
志津川,38.676666,141.449625,unknown,488.433,14.19785,14時間11分52秒,4時間18分8秒
清水浜,38.691889,141.489623,unknown,486.809,14.18541,14時間11分7秒,4時間18分53秒
歌津,38.718293,141.519751,unknown,483.942,14.16343,14時間9分48秒,4時間20分12秒
陸前港,38.739198,141.531026,unknown,481.647,14.14581,14時間8分45秒,4時間21分15秒
蔵内,38.753577,141.525006,unknown,480.033,14.13340,14時間8分0秒,4時間22分0秒
陸前小泉,38.767626,141.508008,unknown,478.430,14.12107,14時間7分16秒,4時間22分44秒
本吉,38.786738,141.502616,unknown,476.293,14.10462,14時間6分17秒,4時間23分43秒
小金沢,38.796359,141.533986,unknown,475.302,14.09698,14時間5分49秒,4時間24分11秒
大谷海岸,38.814266,141.567134,unknown,473.410,14.08238,14時間4分57秒,4時間25分3秒
陸前階上,38.837431,141.580276,unknown,470.880,14.06285,14時間3分46秒,4時間26分14秒
最知,38.853374,141.58127,unknown,469.112,14.04918,14時間2分57秒,4時間27分3秒
松岩,38.873694,141.583137,unknown,466.861,14.03176,14時間1分54秒,4時間28分6秒
南気仙沼,38.895078,141.576671,unknown,464.463,14.01318,14時間0分47秒,4時間29分13秒
不動の沢,38.898482,141.562681,unknown,464.038,14.00989,14時間0分36秒,4時間29分24秒
郡山(福島),37.398187,140.389363,heat,635.769,15.27495,15時間16分30秒,3時間13分30秒
郡山富田,37.420643,140.369167,heat,633.513,15.25929,15時間15分33秒,3時間14分27秒
喜久田,37.451746,140.341912,heat,630.392,15.23759,15時間14分15秒,3時間15分45秒
安子ヶ島,37.472048,140.310133,heat,628.526,15.22459,15時間13分29秒,3時間16分31秒
磐梯熱海,37.480743,140.2707,heat,628.046,15.22124,15時間13分16秒,3時間16分44秒
中山宿,37.495648,140.219401,heat,627.054,15.21432,15時間12分52秒,3時間17分8秒
上戸,37.487848,140.163538,heat,628.652,15.22547,15時間13分32秒,3時間16分28秒
猪苗代湖畔,37.500563,140.147564,heat,627.474,15.21725,15時間13分2秒,3時間16分58秒
関都,37.515577,140.143619,cool,625.879,15.20611,15時間12分22秒,3時間17分38秒
川桁,37.535639,140.136869,cool,623.770,15.19137,15時間11分29秒,3時間18分31秒
猪苗代,37.546286,140.103122,cool,623.079,15.18653,15時間11分12秒,3時間18分48秒
翁島,37.552837,140.054079,cool,623.079,15.18653,15時間11分12秒,3時間18分48秒
磐梯町,37.557305,139.993413,cool,623.516,15.18959,15時間11分23秒,3時間18分37秒
東長原,37.566465,139.948239,eco,623.232,15.18760,15時間11分15秒,3時間18分45秒
広田,37.549235,139.933343,eco,625.356,15.20246,15時間12分9秒,3時間17分51秒
会津若松,37.508824,139.930159,heat,629.825,15.23364,15時間14分1秒,3時間15分59秒
堂島,37.554723,139.911706,heat,625.111,15.20075,15時間12分3秒,3時間17分57秒
笈川,37.579117,139.895318,heat,622.720,15.18401,15時間11分2秒,3時間18分58秒
塩川,37.59393,139.88716,heat,621.240,15.17364,15時間10分25秒,3時間19分35秒
姥堂,37.615952,139.881001,heat,618.942,15.15751,15時間9分27秒,3時間20分33秒
会津豊川,37.633499,139.876787,heat,617.099,15.14456,15時間8分40秒,3時間21分20秒
喜多方,37.643886,139.868365,heat,616.111,15.13760,15時間8分15秒,3時間21分45秒
山都,37.639228,139.766534,eco,618.430,15.15391,15時間9分14秒,3時間20分46秒
荻野,37.617613,139.722119,eco,621.604,15.17619,15時間10分34秒,3時間19分26秒
尾登,37.609024,139.691542,eco,623.116,15.18679,15時間11分12秒,3時間18分48秒
野沢,37.590898,139.64462,cool,625.988,15.20688,15時間12分25秒,3時間17分35秒
上野尻,37.625041,139.633869,cool,622.498,15.18246,15時間10分57秒,3時間19分3秒
徳沢,37.666876,139.602879,cool,618.588,15.15502,15時間9分18秒,3時間20分42秒
豊実,37.680541,139.576348,cool,617.651,15.14844,15時間8分54秒,3時間21分6秒
日出谷,37.705699,139.533985,cool,615.816,15.13553,15時間8分8秒,3時間21分52秒
鹿瀬,37.695656,139.479663,cool,618.061,15.15132,15時間9分5秒,3時間20分55秒
津川,37.68817,139.447136,cool,619.577,15.16197,15時間9分43秒,3時間20分17秒
三川(新潟),37.70835,139.381482,cool,618.877,15.15706,15時間9分25秒,3時間20分35秒
五十島,37.715974,139.353419,cool,618.702,15.15583,15時間9分21秒,3時間20分39秒
東下条,37.736876,139.321815,cool,617.197,15.14524,15時間8分43秒,3時間21分17秒
咲花,37.735003,139.29095,cool,618.129,15.15180,15時間9分6秒,3時間20分54秒
馬下,37.737569,139.260466,heat,618.586,15.15501,15時間9分18秒,3時間20分42秒
猿和田,37.729594,139.222481,heat,620.363,15.16749,15時間10分3秒,3時間19分57秒
五泉,37.734373,139.179785,heat,620.911,15.17133,15時間10分17秒,3時間19分43秒
北五泉,37.746785,139.169758,heat,619.840,15.16382,15時間9分50秒,3時間20分10秒
新関,37.768096,139.162508,eco,617.753,15.14916,15時間8分57秒,3時間21分3秒
東新津,37.787638,139.143768,eco,616.151,15.13788,15時間8分16秒,3時間21分44秒
七日町,37.50121,139.918958,heat,630.839,15.24070,15時間14分27秒,3時間15分33秒
西若松,37.486034,139.914172,heat,632.575,15.25278,15時間15分10秒,3時間14分50秒
会津本郷,37.463488,139.892987,heat,635.386,15.27229,15時間16分20秒,3時間13分40秒
会津高田,37.470839,139.841266,heat,635.450,15.27274,15時間16分22秒,3時間13分38秒
根岸(福島),37.501885,139.828603,heat,632.281,15.25073,15時間15分3秒,3時間14分57秒
新鶴,37.517161,139.828499,eco,630.618,15.23917,15時間14分21秒,3時間15分39秒
若宮,37.535243,139.828321,heat,628.649,15.22545,15時間13分32秒,3時間16分28秒
会津坂下,37.556695,139.821509,heat,626.430,15.20996,15時間12分36秒,3時間17分24秒
塔寺,37.569368,139.785241,heat,625.692,15.20481,15時間12分17秒,3時間17分43秒
会津坂本,37.553266,139.756802,heat,627.959,15.22064,15時間13分14秒,3時間16分46秒
会津柳津,37.538664,139.723817,heat,630.152,15.23592,15時間14分9秒,3時間15分51秒
郷戸,37.51636,139.709911,heat,632.835,15.25458,15時間15分17秒,3時間14分43秒
滝谷(福島),37.494315,139.69799,heat,635.453,15.27276,15時間16分22秒,3時間13分38秒
会津桧原,37.491664,139.679382,heat,636.090,15.27717,15時間16分38秒,3時間13分22秒
会津西方,37.480937,139.661528,heat,637.593,15.28758,15時間17分15秒,3時間12分45秒
会津宮下,37.471169,139.647102,cool,638.929,15.29683,15時間17分49秒,3時間12分11秒
早戸,37.469953,139.593605,cool,640.100,15.30492,15時間18分18秒,3時間11分42秒
会津水沼,37.483026,139.560733,cool,639.339,15.29966,15時間17分59秒,3時間12分1秒
会津中川,37.473785,139.532135,cool,640.917,15.31056,15時間18分38秒,3時間11分22秒
会津川口,37.455076,139.52384,cool,643.111,15.32570,15時間19分33秒,3時間10分27秒
本名,37.44476,139.49882,cool,644.740,15.33692,15時間20分13秒,3時間9分47秒
会津越川,37.398684,139.469405,cool,650.329,15.37529,15時間22分31秒,3時間7分29秒
会津横田,37.392353,139.435853,cool,651.716,15.38479,15時間23分5秒,3時間6分55秒
会津大塩,37.392803,139.413044,eco,652.152,15.38777,15時間23分16秒,3時間6分44秒
会津塩沢,37.393599,139.355096,eco,653.321,15.39577,15時間23分45秒,3時間6分15秒
会津蒲生,37.381775,139.333213,eco,655.077,15.40776,15時間24分28秒,3時間5分32秒
只見,37.350239,139.314783,eco,658.880,15.43367,15時間26分1秒,3時間3分59秒
田子倉,37.317869,139.255142,unknown,663.701,15.46639,15時間27分59秒,3時間2分1秒
大白川,37.341687,139.121373,cool,664.282,15.47033,15時間28分13秒,3時間1分47秒
柿ノ木,37.341195,139.08933,unknown,665.113,15.47595,15時間28分33秒,3時間1分27秒
入広瀬,37.358818,139.06599,cool,663.805,15.46709,15時間28分2秒,3時間1分58秒
上条(新潟),37.346836,139.050698,cool,665.463,15.47832,15時間28分42秒,3時間1分18秒
越後須原,37.320591,139.017463,heat,669.092,15.50282,15時間30分10秒,2時間59分50秒
魚沼田中,37.294413,138.992578,heat,672.509,15.52583,15時間31分33秒,2時間58分27秒
越後広瀬,37.274363,138.981141,heat,674.935,15.54212,15時間32分32秒,2時間57分28秒
藪神,37.256737,138.975698,eco,676.951,15.55563,15時間33分20秒,2時間56分40秒
小出,37.233581,138.953526,heat,679.979,15.57588,15時間34分33秒,2時間55分27秒
いわき,37.058241,140.892273,heat,669.458,15.50529,15時間30分19秒,2時間59分41秒
赤井,37.080631,140.866294,heat,667.104,15.48941,15時間29分22秒,3時間0分38秒
小川郷,37.126446,140.862514,heat,662.039,15.45512,15時間27分18秒,3時間2分42秒
江田(福島),37.179389,140.82609,heat,656.365,15.41654,15時間25分0秒,3時間5分0秒
川前,37.20559,140.750335,heat,653.928,15.39991,15時間24分0秒,3時間6分0秒
夏井,37.253108,140.662552,heat,649.287,15.36815,15時間22分5秒,3時間7分55秒
小野新町,37.275819,140.63656,heat,646.974,15.35228,15時間21分8秒,3時間8分52秒
神俣,37.324186,140.659487,heat,641.437,15.31415,15時間18分51秒,3時間11分9秒
菅谷,37.351024,140.644185,cool,638.585,15.29445,15時間17分40秒,3時間12分20秒
大越,37.386746,140.630693,cool,634.738,15.26780,15時間16分4秒,3時間13分56秒
磐城常葉,37.420611,140.605579,cool,631.198,15.24320,15時間14分36秒,3時間15分24秒
船引,37.44291,140.574558,cool,628.999,15.22789,15時間13分40秒,3時間16分20秒
要田,37.453969,140.520773,eco,628.270,15.22281,15時間13分22秒,3時間16分38秒
三春,37.449841,140.479275,eco,629.129,15.22879,15時間13分44秒,3時間16分16秒
舞木,37.416716,140.435074,eco,633.238,15.25738,15時間15分27秒,3時間14分33秒
黒磯,36.970128,140.060204,heat,686.942,15.62224,15時間37分20秒,2時間52分40秒
高久,36.996572,140.087346,heat,683.670,15.60049,15時間36分2秒,2時間53分58秒
黒田原,37.022848,140.119586,heat,680.355,15.57839,15時間34分42秒,2時間55分18秒
豊原,37.055014,140.155066,heat,676.358,15.55166,15時間33分6秒,2時間56分54秒
白坂,37.09457,140.184388,heat,671.633,15.51994,15時間31分12秒,2時間58分48秒
新白河,37.12331,140.188969,heat,668.412,15.49824,15時間29分54秒,3時間0分6秒
白河,37.129692,140.213742,heat,667.402,15.49142,15時間29分29秒,3時間0分31秒
久田野,37.137048,140.259458,heat,666.041,15.48223,15時間28分56秒,3時間1分4秒
泉崎,37.15835,140.299026,heat,663.232,15.46321,15時間27分48秒,3時間2分12秒
矢吹,37.205286,140.327983,heat,657.728,15.42583,15時間25分33秒,3時間4分27秒
鏡石,37.250733,140.346812,heat,652.505,15.39019,15時間23分25秒,3時間6分35秒
須賀川,37.300335,140.372014,heat,646.755,15.35077,15時間21分3秒,3時間8分57秒
安積永盛,37.356967,140.368943,heat,640.540,15.30796,15時間18分29秒,3時間11分31秒
日和田,37.446405,140.388333,heat,630.460,15.23807,15時間14分17秒,3時間15分43秒
五百川,37.482887,140.38785,heat,626.440,15.21003,15時間12分36秒,3時間17分24秒
本宮(福島),37.514177,140.399534,heat,622.859,15.18499,15時間11分6秒,3時間18分54秒
杉田(福島),37.563307,140.413663,cool,617.284,15.14586,15時間8分45秒,3時間21分15秒
二本松,37.589598,140.435389,cool,614.148,15.12377,15時間7分26秒,3時間22分34秒
安達,37.611724,140.466042,cool,611.383,15.10425,15時間6分15秒,3時間23分45秒
松川,37.653825,140.48442,cool,606.544,15.07000,15時間4分12秒,3時間25分48秒
金谷川,37.680526,140.452244,cool,603.932,15.05146,15時間3分5秒,3時間26分55秒
南福島,37.723665,140.456074,cool,599.130,15.01728,15時間1分2秒,3時間28分58秒
東福島,37.800447,140.478058,eco,590.421,14.95498,14時間57分18秒,3時間32分42秒
伊達,37.823917,140.493255,eco,587.671,14.93522,14時間56分7秒,3時間33分53秒
桑折,37.855258,140.517508,eco,583.960,14.90851,14時間54分31秒,3時間35分29秒
藤田,37.879062,140.539722,eco,581.106,14.88791,14時間53分16秒,3時間36分44秒
貝田,37.908226,140.58106,eco,577.481,14.86169,14時間51分42秒,3時間38分18秒
越河,37.933616,140.604572,cool,574.453,14.83974,14時間50分23秒,3時間39分37秒
白石(宮城),38.003581,140.626164,cool,566.518,14.78199,14時間46分55秒,3時間43分5秒
東白石,38.034935,140.651109,cool,562.826,14.75502,14時間45分18秒,3時間44分42秒
北白川,38.032607,140.692613,cool,562.727,14.75429,14時間45分15秒,3時間44分45秒
大河原(宮城),38.047491,140.740142,cool,560.696,14.73942,14時間44分22秒,3時間45分38秒
船岡(宮城),38.059298,140.767366,cool,559.182,14.72833,14時間43分42秒,3時間46分18秒
槻木,38.07864,140.809992,cool,556.732,14.71035,14時間42分37秒,3時間47分23秒
岩沼,38.11205,140.863783,cool,552.673,14.68049,14時間40分50秒,3時間49分10秒
館腰,38.142987,140.880208,heat,549.140,14.65444,14時間39分16秒,3時間50分44秒
名取,38.173017,140.882753,cool,545.794,14.62972,14時間37分47秒,3時間52分13秒
南仙台,38.197384,140.883296,cool,543.088,14.60968,14時間36分35秒,3時間53分25秒
太子堂,38.21711,140.883436,eco,540.899,14.59345,14時間35分36秒,3時間54分24秒
長町,38.226797,140.885986,eco,539.809,14.58536,14時間35分7秒,3時間54分53秒
東仙台,38.276512,140.920204,eco,534.091,14.54282,14時間32分34秒,3時間57分26秒
岩切,38.300773,140.954617,eco,531.209,14.52132,14時間31分17秒,3時間58分43秒
新利府,38.317059,140.972609,heat,529.308,14.50712,14時間30分26秒,3時間59分34秒
利府,38.329483,140.984652,heat,527.869,14.49636,14時間29分47秒,4時間0分13秒
陸前山王,38.299586,140.97917,eco,531.215,14.52137,14時間31分17秒,3時間58分43秒
国府多賀城,38.300933,140.99411,heat,530.992,14.51970,14時間31分11秒,3時間58分49秒
塩釜,38.309584,141.009564,heat,529.960,14.51199,14時間30分43秒,3時間59分17秒
松島,38.379892,141.065982,heat,521.913,14.45172,14時間27分6秒,4時間2分54秒
愛宕(宮城),38.397371,141.065,heat,519.975,14.43716,14時間26分14秒,4時間3分46秒
品井沼,38.431539,141.082408,eco,516.113,14.40809,14時間24分29秒,4時間5分31秒
鹿島台,38.474708,141.097965,eco,511.261,14.37148,14時間22分17秒,4時間7分43秒
松山町,38.512332,141.075187,eco,507.165,14.34049,14時間20分26秒,4時間9分34秒
田尻,38.596246,141.058912,eco,497.909,14.27020,14時間16分13秒,4時間13分47秒
瀬峰,38.655153,141.07383,eco,491.306,14.21983,14時間13分11秒,4時間16分49秒
梅ヶ沢,38.681678,141.085278,eco,488.314,14.19694,14時間11分49秒,4時間18分11秒
新田(宮城),38.711475,141.119428,eco,484.881,14.17064,14時間10分14秒,4時間19分46秒
石越,38.768778,141.15906,eco,478.391,14.12077,14時間7分15秒,4時間22分45秒
油島,38.797113,141.175706,eco,475.196,14.09616,14時間5分46秒,4時間24分14秒
花泉,38.83331,141.180013,eco,471.162,14.06503,14時間3分54秒,4時間26分6秒
清水原,38.854915,141.156576,eco,468.825,14.04696,14時間2分49秒,4時間27分11秒
有壁,38.867371,141.120994,eco,467.554,14.03713,14時間2分14秒,4時間27分46秒
山ノ目,38.951253,141.131921,eco,458.197,13.96453,13時間57分52秒,4時間32分8秒
平泉,38.987935,141.117786,eco,454.171,13.93318,13時間55分59秒,4時間34分1秒
前沢,39.048686,141.12624,cool,447.391,13.88026,13時間52分49秒,4時間37分11秒
陸中折居,39.094185,141.140864,cool,442.286,13.84030,13時間50分25秒,4時間39分35秒
水沢,39.138998,141.146395,cool,437.288,13.80108,13時間48分4秒,4時間41分56秒
金ヶ崎,39.199615,141.112894,cool,430.673,13.74902,13時間44分56秒,4時間45分4秒
六原,39.227894,141.097605,cool,427.593,13.72474,13時間43分29秒,4時間46分31秒
村崎野,39.323027,141.120442,cool,416.935,13.64043,13時間38分26秒,4時間51分34秒
花巻空港,39.442639,141.127625,cool,403.621,13.53455,13時間32分4秒,4時間57分56秒
石鳥谷,39.490919,141.146861,cool,398.186,13.49117,13時間29分28秒,5時間0分32秒
日詰,39.538734,141.160637,cool,392.825,13.44827,13時間26分54秒,5時間3分6秒
紫波中央,39.5549,141.15995,heat,391.032,13.43391,13時間26分2秒,5時間3分58秒
古館,39.580844,141.154575,heat,388.168,13.41094,13時間24分39秒,5時間5分21秒
矢幅,39.613293,141.148299,heat,384.585,13.38217,13時間22分56秒,5時間7分4秒
岩手飯岡,39.65373,141.146861,heat,380.098,13.34608,13時間20分46秒,5時間9分14秒
仙北町,39.687919,141.148814,heat,376.293,13.31543,13時間18分56秒,5時間11分4秒
東京,35.681391,139.766103,heat,832.591,16.52143,16時間31分17秒,1時間58分43秒
新橋,35.666195,139.758587,heat,834.366,16.53151,16時間31分53秒,1時間58分7秒
品川,35.62876,139.738999,eco,838.754,16.55633,16時間33分23秒,1時間56分37秒
川崎,35.531311,139.697485,cool,850.045,16.61957,16時間37分10秒,1時間52分50秒
横浜,35.466195,139.622704,cool,858.283,16.66514,16時間39分54秒,1時間50分6秒
戸塚,35.400432,139.534282,cool,866.833,16.71191,16時間42分43秒,1時間47分17秒
大船,35.353466,139.531127,cool,872.028,16.74007,16時間44分24秒,1時間45分36秒
藤沢,35.338882,139.487293,cool,874.309,16.75237,16時間45分9秒,1時間44分51秒
辻堂,35.336847,139.447106,cool,875.171,16.75701,16時間45分25秒,1時間44分35秒
茅ケ崎,35.330741,139.407197,cool,876.487,16.76408,16時間45分51秒,1時間44分9秒
平塚,35.327647,139.349063,cool,877.791,16.77108,16時間46分16秒,1時間43分44秒
大磯,35.311299,139.313388,cool,880.183,16.78387,16時間47分2秒,1時間42分58秒
二宮(JR),35.298644,139.256925,heat,882.542,16.79646,16時間47分47秒,1時間42分13秒
国府津,35.280832,139.212932,cool,885.264,16.81092,16時間48分39秒,1時間41分21秒
鴨宮,35.275744,139.180147,heat,886.408,16.81698,16時間49分1秒,1時間40分59秒
小田原,35.256225,139.155772,heat,888.978,16.83057,16時間49分50秒,1時間40分10秒
早川,35.238875,139.145014,eco,891.064,16.84156,16時間50分30秒,1時間39分30秒
根府川,35.202455,139.138504,eco,895.150,16.86300,16時間51分47秒,1時間38分13秒
真鶴,35.156837,139.132148,eco,900.235,16.88950,16時間53分22秒,1時間36分38秒
湯河原,35.146178,139.102142,eco,901.947,16.89838,16時間53分54秒,1時間36分6秒
熱海,35.103573,139.077679,heat,907.038,16.92466,16時間55分29秒,1時間34分31秒
大崎,35.619772,139.728439,cool,839.890,16.56274,16時間33分46秒,1時間56分14秒
五反田,35.625974,139.723822,eco,839.275,16.55927,16時間33分33秒,1時間56分27秒
目黒,35.633923,139.715775,eco,838.518,16.55500,16時間33分18秒,1時間56分42秒
恵比寿,35.646685,139.71007,cool,837.199,16.54755,16時間32分51秒,1時間57分9秒
渋谷,35.658871,139.701238,cool,835.989,16.54071,16時間32分27秒,1時間57分33秒
原宿,35.670646,139.702592,cool,834.677,16.53328,16時間32分0秒,1時間58分0秒
明治神宮前〈原宿〉,35.669071,139.703995,cool,834.830,16.53414,16時間32分3秒,1時間57分57秒
代々木,35.683061,139.702042,cool,833.323,16.52559,16時間31分32秒,1時間58分28秒
新宿,35.689729,139.700464,heat,832.614,16.52156,16時間31分18秒,1時間58分42秒
新大久保,35.700875,139.700261,eco,831.394,16.51462,16時間30分53秒,1時間59分7秒
高田馬場,35.712677,139.703715,eco,830.048,16.50695,16時間30分25秒,1時間59分35秒
目白,35.720476,139.706228,eco,829.156,16.50187,16時間30分7秒,1時間59分53秒
池袋,35.730256,139.711086,heat,828.012,16.49533,16時間29分43秒,2時間0分17秒
大塚(東京),35.731412,139.728584,heat,827.631,16.49315,16時間29分35秒,2時間0分25秒
大塚駅前,35.732082,139.729593,heat,827.543,16.49265,16時間29分34秒,2時間0分26秒
巣鴨,35.733445,139.739303,heat,827.254,16.49099,16時間29分28秒,2時間0分32秒
駒込,35.736825,139.748053,heat,826.758,16.48816,16時間29分17秒,2時間0分43秒
田端,35.737781,139.761229,heat,826.466,16.48648,16時間29分11秒,2時間0分49秒
西日暮里,35.731954,139.766857,heat,827.027,16.48970,16時間29分23秒,2時間0分37秒
日暮里,35.727908,139.771287,heat,827.409,16.49188,16時間29分31秒,2時間0分29秒
鶯谷,35.721484,139.778015,heat,828.020,16.49538,16時間29分43秒,2時間0分17秒
上野,35.71379,139.777043,heat,828.879,16.50028,16時間30分1秒,1時間59分59秒
御徒町,35.707282,139.774727,heat,829.626,16.50455,16時間30分16秒,1時間59分44秒
上野広小路,35.70768,139.772877,heat,829.609,16.50445,16時間30分16秒,1時間59分44秒
仲御徒町,35.706649,139.776138,eco,829.676,16.50483,16時間30分17秒,1時間59分43秒
上野御徒町,35.707893,139.774332,eco,829.565,16.50420,16時間30分15秒,1時間59分45秒
秋葉原,35.698619,139.773288,heat,830.598,16.51009,16時間30分36秒,1時間59分24秒
神田(東京),35.691173,139.770641,heat,831.453,16.51496,16時間30分54秒,1時間59分6秒
有楽町,35.675441,139.763806,heat,833.277,16.52533,16時間31分31秒,1時間58分29秒
浜松町,35.655391,139.757135,heat,835.573,16.53835,16時間32分18秒,1時間57分42秒
田町(東京),35.645736,139.747575,heat,836.768,16.54512,16時間32分42秒,1時間57分18秒
高輪ゲートウェイ,35.635475,139.740757,heat,837.991,16.55203,16時間33分7秒,1時間56分53秒
尻手,35.530939,139.684233,cool,850.277,16.62086,16時間37分15秒,1時間52分45秒
矢向,35.539408,139.68055,cool,849.401,16.61599,16時間36分58秒,1時間53分2秒
鹿島田,35.551459,139.674964,cool,848.159,16.60907,16時間36分33秒,1時間53分27秒
平間,35.560565,139.671039,cool,847.217,16.60382,16時間36分14秒,1時間53分46秒
向河原,35.572891,139.66725,cool,845.920,16.59658,16時間35分48秒,1時間54分12秒
武蔵小杉,35.57669,139.65963,cool,845.615,16.59487,16時間35分42秒,1時間54分18秒
武蔵中原,35.581498,139.640613,cool,845.370,16.59350,16時間35分37秒,1時間54分23秒
武蔵新城,35.587369,139.629419,cool,844.893,16.59083,16時間35分27秒,1時間54分33秒
武蔵溝ノ口,35.598923,139.61139,cool,843.899,16.58526,16時間35分7秒,1時間54分53秒
溝の口,35.59984,139.610487,cool,843.812,16.58478,16時間35分5秒,1時間54分55秒
津田山,35.604259,139.600002,heat,843.487,16.58295,16時間34分59秒,1時間55分1秒
久地,35.610363,139.592714,heat,842.930,16.57983,16時間34分47秒,1時間55分13秒
宿河原,35.615429,139.579565,heat,842.578,16.57785,16時間34分40秒,1時間55分20秒
登戸,35.620889,139.570028,heat,842.128,16.57533,16時間34分31秒,1時間55分29秒
中野島,35.630135,139.5501,eco,841.427,16.57139,16時間34分17秒,1時間55分43秒
稲田堤,35.633701,139.535173,eco,841.273,16.57052,16時間34分14秒,1時間55分46秒
矢野口,35.641305,139.520849,heat,840.669,16.56712,16時間34分2秒,1時間55分58秒
稲城長沼,35.644184,139.502811,heat,840.645,16.56699,16時間34分1秒,1時間55分59秒
南多摩,35.649249,139.489781,heat,840.302,16.56506,16時間33分54秒,1時間56分6秒
府中本町,35.665766,139.477142,heat,838.703,16.55605,16時間33分22秒,1時間56分38秒
分倍河原,35.668493,139.468798,eco,838.542,16.55514,16時間33分18秒,1時間56分42秒
西府,35.670912,139.457477,heat,838.465,16.55470,16時間33分17秒,1時間56分43秒
谷保,35.681377,139.446724,eco,837.501,16.54926,16時間32分57秒,1時間57分3秒
矢川,35.685079,139.431611,eco,837.350,16.54841,16時間32分54秒,1時間57分6秒
西国立,35.69375,139.423887,cool,836.534,16.54379,16時間32分38秒,1時間57分22秒
立川,35.698202,139.413704,cool,836.220,16.54202,16時間32分31秒,1時間57分29秒
八丁畷,35.523071,139.691446,cool,851.037,16.62509,16時間37分30秒,1時間52分30秒
川崎新町,35.518234,139.699348,eco,851.455,16.62741,16時間37分39秒,1時間52分21秒
小田栄,35.5145,139.704944,eco,851.785,16.62924,16時間37分45秒,1時間52分15秒
浜川崎,35.510428,139.713483,eco,852.111,16.63105,16時間37分52秒,1時間52分8秒
鶴見,35.508387,139.67614,cool,852.869,16.63525,16時間38分7秒,1時間51分53秒
京急鶴見,35.507032,139.677743,cool,852.995,16.63595,16時間38分9秒,1時間51分51秒
国道,35.50083,139.675599,cool,853.707,16.63989,16時間38分24秒,1時間51分36秒
鶴見小野,35.497005,139.681226,cool,854.045,16.64176,16時間38分30秒,1時間51分30秒
弁天橋,35.495758,139.689451,cool,854.064,16.64186,16時間38分31秒,1時間51分29秒
浅野,35.497555,139.695739,cool,853.777,16.64028,16時間38分25秒,1時間51分35秒
新芝浦,35.491914,139.7001,cool,854.334,16.64336,16時間38分36秒,1時間51分24秒
海芝浦,35.486073,139.700603,cool,854.968,16.64686,16時間38分49秒,1時間51分11秒
安善,35.499668,139.700663,eco,853.474,16.63860,16時間38分19秒,1時間51分41秒
大川,35.495646,139.711038,eco,853.769,16.64023,16時間38分25秒,1時間51分35秒
武蔵白石,35.501912,139.706513,eco,853.145,16.63678,16時間38分12秒,1時間51分48秒
昭和,35.506836,139.723897,heat,852.358,16.63242,16時間37分57秒,1時間52分3秒
扇町(神奈川),35.501452,139.722147,heat,852.974,16.63583,16時間38分9秒,1時間51分51秒
北府中,35.68088,139.471792,heat,837.139,16.54721,16時間32分50秒,1時間57分10秒
西国分寺,35.699744,139.465994,heat,835.173,16.53609,16時間32分10秒,1時間57分50秒
新小平,35.73128,139.470745,heat,831.647,16.51606,16時間30分58秒,1時間59分2秒
新秋津,35.778331,139.493592,heat,826.125,16.48453,16時間29分4秒,2時間0分56秒
東所沢,35.79461,139.513878,heat,824.012,16.47241,16時間28分21秒,2時間1分39秒
新座,35.80381,139.556328,heat,822.318,16.46266,16時間27分46秒,2時間2分14秒
北朝霞,35.815475,139.587322,heat,820.548,16.45246,16時間27分9秒,2時間2分51秒
朝霞台,35.814328,139.587189,eco,820.676,16.45320,16時間27分12秒,2時間2分48秒
西浦和,35.844139,139.627707,heat,816.778,16.43066,16時間25分50秒,2時間4分10秒
武蔵浦和,35.846047,139.647974,heat,816.257,16.42764,16時間25分40秒,2時間4分20秒
南浦和,35.847648,139.669125,heat,815.759,16.42476,16時間25分29秒,2時間4分31秒
東浦和,35.864079,139.704627,heat,813.425,16.41119,16時間24分40秒,2時間5分20秒
東川口,35.875246,139.744087,eco,811.621,16.40069,16時間24分2秒,2時間5分58秒
南越谷,35.876106,139.790499,cool,810.861,16.39625,16時間23分47秒,2時間6分13秒
新越谷,35.875186,139.789905,eco,810.971,16.39689,16時間23分49秒,2時間6分11秒
越谷レイクタウン,35.876176,139.8221,cool,810.412,16.39363,16時間23分37秒,2時間6分23秒
吉川,35.87662,139.843162,eco,810.074,16.39166,16時間23分30秒,2時間6分30秒
吉川美南,35.868026,139.858445,eco,810.811,16.39596,16時間23分45秒,2時間6分15秒
新三郷,35.858667,139.869341,eco,811.693,16.40111,16時間24分4秒,2時間5分56秒
三郷(埼玉),35.845004,139.886341,eco,812.970,16.40855,16時間24分31秒,2時間5分29秒
南流山,35.838035,139.903865,cool,813.506,16.41167,16時間24分42秒,2時間5分18秒
新松戸,35.825467,139.921076,cool,814.666,16.41841,16時間25分6秒,2時間4分54秒
幸谷,35.826642,139.919912,eco,814.551,16.41774,16時間25分4秒,2時間4分56秒
新八柱,35.792013,139.938393,cool,818.127,16.43848,16時間26分19秒,2時間3分41秒
八柱,35.791394,139.937362,heat,818.208,16.43894,16時間26分20秒,2時間3分40秒
東松戸,35.770611,139.943848,eco,820.414,16.45169,16時間27分6秒,2時間2分54秒
市川大野,35.755432,139.951227,eco,821.993,16.46079,16時間27分39秒,2時間2分21秒
船橋法典,35.730435,139.966771,eco,824.553,16.47551,16時間28分32秒,2時間1分28秒
西船橋,35.707283,139.959536,eco,827.192,16.49064,16時間29分26秒,2時間0分34秒
東神奈川,35.47804,139.633466,cool,856.824,16.65710,16時間39分26秒,1時間50分34秒
京急東神奈川,35.477412,139.634669,cool,856.875,16.65738,16時間39分27秒,1時間50分33秒
大口,35.492375,139.646288,cool,855.062,16.64738,16時間38分51秒,1時間51分9秒
菊名,35.509749,139.630147,cool,853.395,16.63816,16時間38分17秒,1時間51分43秒
新横浜,35.506824,139.617348,cool,853.907,16.64100,16時間38分28秒,1時間51分32秒
小机,35.508533,139.599787,cool,853.983,16.64142,16時間38分29秒,1時間51分31秒
鴨居,35.510955,139.56707,cool,854.217,16.64271,16時間38分34秒,1時間51分26秒
中山(神奈川),35.514745,139.539692,cool,854.227,16.64277,16時間38分34秒,1時間51分26秒
十日市場(神奈川),35.526254,139.51669,eco,853.328,16.63779,16時間38分16秒,1時間51分44秒
長津田,35.531698,139.49468,cool,853.083,16.63643,16時間38分11秒,1時間51分49秒
成瀬,35.535412,139.472875,heat,853.029,16.63613,16時間38分10秒,1時間51分50秒
町田,35.542004,139.445579,heat,852.754,16.63461,16時間38分5秒,1時間51分55秒
古淵,35.556055,139.419151,eco,851.657,16.62853,16時間37分43秒,1時間52分17秒
淵野辺,35.568784,139.395075,eco,850.671,16.62305,16時間37分23秒,1時間52分37秒
矢部,35.573275,139.386373,heat,850.328,16.62115,16時間37分16秒,1時間52分44秒
相模原,35.58113,139.371007,heat,849.733,16.61784,16時間37分4秒,1時間52分56秒
橋本(神奈川),35.594975,139.344586,heat,848.679,16.61197,16時間36分43秒,1時間53分17秒
相原,35.60694,139.33169,heat,847.599,16.60595,16時間36分21秒,1時間53分39秒
八王子みなみ野,35.630664,139.330678,cool,845.029,16.59159,16時間35分30秒,1時間54分30秒
片倉,35.639704,139.34119,cool,843.858,16.58503,16時間35分6秒,1時間54分54秒
八王子,35.655555,139.338998,eco,842.168,16.57555,16時間34分32秒,1時間55分28秒
桜木町,35.451112,139.630881,cool,859.816,16.67356,16時間40分25秒,1時間49分35秒
関内,35.443336,139.636984,cool,860.580,16.67776,16時間40分40秒,1時間49分20秒
石川町,35.438808,139.642934,cool,860.989,16.68000,16時間40分48秒,1時間49分12秒
山手,35.426891,139.646425,cool,862.246,16.68688,16時間41分13秒,1時間48分47秒
根岸(神奈川),35.415887,139.636034,cool,863.605,16.69431,16時間41分40秒,1時間48分20秒
磯子,35.399881,139.617916,eco,865.628,16.70535,16時間42分19秒,1時間47分41秒
新杉田,35.386863,139.619483,eco,867.033,16.71300,16時間42分47秒,1時間47分13秒
洋光台,35.378785,139.596852,eco,868.255,16.71964,16時間43分11秒,1時間46分49秒
港南台,35.375183,139.576243,eco,868.959,16.72346,16時間43分24秒,1時間46分36秒
本郷台,35.36787,139.550159,heat,870.157,16.72995,16時間43分48秒,1時間46分12秒
西大井,35.601616,139.721729,heat,841.980,16.57450,16時間34分28秒,1時間55分32秒
新川崎,35.551784,139.671481,cool,848.174,16.60916,16時間36分33秒,1時間53分27秒
保土ケ谷,35.446746,139.599671,cool,860.760,16.67874,16時間40分43秒,1時間49分17秒
東戸塚,35.430353,139.556794,cool,863.208,16.69214,16時間41分32秒,1時間48分28秒
北鎌倉,35.337198,139.545134,cool,873.596,16.74853,16時間44分55秒,1時間45分5秒
鎌倉,35.318793,139.550428,eco,875.533,16.75896,16時間45分32秒,1時間44分28秒
逗子,35.297392,139.578292,eco,877.459,16.76930,16時間46分9秒,1時間43分51秒
東逗子,35.298781,139.601768,eco,876.959,16.76661,16時間46分0秒,1時間44分0秒
田浦,35.29271,139.637726,eco,877.100,16.76737,16時間46分3秒,1時間43分57秒
横須賀,35.284022,139.655855,heat,877.794,16.77109,16時間46分16秒,1時間43分44秒
衣笠,35.257091,139.661193,heat,880.675,16.78650,16時間47分11秒,1時間42分49秒
久里浜,35.233107,139.700862,heat,882.754,16.79758,16時間47分51秒,1時間42分9秒
京急久里浜,35.231332,139.702139,eco,882.932,16.79853,16時間47分55秒,1時間42分5秒
北茅ケ崎,35.339167,139.407569,cool,875.559,16.75910,16時間45分33秒,1時間44分27秒
香川,35.35655,139.400044,cool,873.782,16.74953,16時間44分58秒,1時間45分2秒
寒川,35.367579,139.387452,cool,872.785,16.74416,16時間44分39秒,1時間45分21秒
宮山,35.382261,139.379639,cool,871.310,16.73619,16時間44分10秒,1時間45分50秒
倉見,35.395098,139.378422,cool,869.928,16.72871,16時間43分43秒,1時間46分17秒
門沢橋,35.406761,139.380139,cool,868.624,16.72164,16時間43分18秒,1時間46分42秒
社家,35.420543,139.377281,cool,867.166,16.71372,16時間42分49秒,1時間47分11秒
厚木,35.44375,139.378631,cool,864.608,16.69979,16時間41分59秒,1時間48分1秒
海老名,35.454282,139.389328,cool,863.277,16.69252,16時間41分33秒,1時間48分27秒
入谷(神奈川),35.478478,139.391913,heat,860.590,16.67781,16時間40分40秒,1時間49分20秒
相武台下,35.492734,139.386297,heat,859.127,16.66978,16時間40分11秒,1時間49分49秒
下溝,35.518516,139.380428,heat,856.410,16.65482,16時間39分17秒,1時間50分43秒
原当麻,35.528978,139.375355,heat,855.353,16.64899,16時間38分56秒,1時間51分4秒
番田(神奈川),35.545392,139.362988,heat,853.773,16.64025,16時間38分25秒,1時間51分35秒
上溝,35.557623,139.36315,eco,852.434,16.63284,16時間37分58秒,1時間52分2秒
南橋本,35.58042,139.352484,eco,850.130,16.62005,16時間37分12秒,1時間52分48秒
四ツ谷(四ッ谷),35.686041,139.730644,heat,832.583,16.52139,16時間31分17秒,1時間58分43秒
吉祥寺,35.703119,139.579765,heat,832.970,16.52359,16時間31分25秒,1時間58分35秒
三鷹,35.702683,139.560325,cool,833.323,16.52559,16時間31分32秒,1時間58分28秒
国分寺,35.700123,139.480841,cool,834.886,16.53446,16時間32分4秒,1時間57分56秒
日野(東京),35.679244,139.39393,cool,838.629,16.55563,16時間33分20秒,1時間56分40秒
豊田,35.659502,139.381495,cool,840.997,16.56897,16時間34分8秒,1時間55分52秒
西八王子,35.656621,139.31264,eco,842.518,16.57752,16時間34分39秒,1時間55分21秒
高尾(東京),35.642026,139.282288,eco,844.652,16.58948,16時間35分22秒,1時間54分38秒
相模湖,35.617335,139.1885,cool,849.065,16.61412,16時間36分51秒,1時間53分9秒
藤野,35.615918,139.15239,cool,849.901,16.61877,16時間37分8秒,1時間52分52秒
上野原,35.618747,139.115787,cool,850.297,16.62097,16時間37分16秒,1時間52分44秒
四方津,35.614252,139.072572,cool,851.629,16.62837,16時間37分42秒,1時間52分18秒
梁川(山梨),35.605271,139.038076,cool,853.287,16.63756,16時間38分15秒,1時間51分45秒
鳥沢,35.608118,139.003345,cool,853.677,16.63972,16時間38分23秒,1時間51分37秒
猿橋,35.61288,138.968388,cool,853.874,16.64081,16時間38分27秒,1時間51分33秒
大月,35.613222,138.942729,heat,854.366,16.64353,16時間38分37秒,1時間51分23秒
初狩,35.594274,138.883966,heat,857.648,16.66164,16時間39分42秒,1時間50分18秒
笹子,35.603921,138.825205,heat,857.865,16.66284,16時間39分46秒,1時間50分14秒
甲斐大和,35.639364,138.781632,heat,854.996,16.64702,16時間38分49秒,1時間51分11秒
勝沼ぶどう郷,35.67279,138.74323,heat,852.251,16.63182,16時間37分55秒,1時間52分5秒
塩山,35.705327,138.734796,heat,848.938,16.61341,16時間36分48秒,1時間53分12秒
東山梨,35.694313,138.703026,eco,850.847,16.62403,16時間37分27秒,1時間52分33秒
山梨市,35.684961,138.683003,eco,852.312,16.63216,16時間37分56秒,1時間52分4秒
春日居町,35.673491,138.659,eco,854.100,16.64206,16時間38分31秒,1時間51分29秒
石和温泉,35.657603,138.634577,eco,856.375,16.65463,16時間39分17秒,1時間50分43秒
酒折,35.659486,138.598852,eco,857.012,16.65814,16時間39分29秒,1時間50分31秒
甲府,35.667054,138.569015,eco,856.909,16.65757,16時間39分27秒,1時間50分33秒
竜王,35.668764,138.519298,eco,857.923,16.66316,16時間39分47秒,1時間50分13秒
塩崎,35.687734,138.487521,eco,856.669,16.65625,16時間39分22秒,1時間50分38秒
韮崎,35.709711,138.451357,eco,855.214,16.64822,16時間38分54秒,1時間51分6秒
新府,35.736802,138.433093,eco,852.777,16.63474,16時間38分5秒,1時間51分55秒
穴山,35.75107,138.413858,eco,851.739,16.62898,16時間37分44秒,1時間52分16秒
日野春,35.79065,138.394316,eco,848.015,16.60827,16時間36分30秒,1時間53分30秒
長坂,35.827061,138.366459,eco,844.853,16.59061,16時間35分26秒,1時間54分34秒
小淵沢,35.863808,138.316351,eco,842.256,16.57605,16時間34分34秒,1時間55分26秒
信濃境,35.884952,138.275419,heat,841.099,16.56954,16時間34分10秒,1時間55分50秒
富士見,35.912183,138.238071,heat,839.220,16.55896,16時間33分32秒,1時間56分28秒
すずらんの里,35.930288,138.211775,heat,838.020,16.55219,16時間33分8秒,1時間56分52秒
青柳,35.942581,138.197612,heat,837.109,16.54704,16時間32分49秒,1時間57分11秒
茅野,35.995062,138.151674,eco,832.841,16.52285,16時間31分22秒,1時間58分38秒
上諏訪,36.046618,138.116306,eco,828.403,16.49756,16時間29分51秒,2時間0分9秒
下諏訪,36.071948,138.084953,eco,826.636,16.48746,16時間29分15秒,2時間0分45秒
岡谷,36.056693,138.045001,eco,829.401,16.50326,16時間30分12秒,1時間59分48秒
みどり湖,36.094176,137.981928,cool,827.323,16.49139,16時間29分29秒,2時間0分31秒
川岸,36.03296,138.021937,cool,832.571,16.52132,16時間31分17秒,1時間58分43秒
辰野,35.984565,137.997238,cool,838.382,16.55424,16時間33分15秒,1時間56分45秒
信濃川島,36.013642,137.97185,cool,836.075,16.54120,16時間32分28秒,1時間57分32秒
小野(長野),36.04693,137.9706,cool,832.618,16.52159,16時間31分18秒,1時間58分42秒
塩尻,36.114364,137.947961,cool,826.224,16.48510,16時間29分6秒,2時間0分54秒
御茶ノ水,35.699605,139.764955,heat,830.607,16.51014,16時間30分37秒,1時間59分23秒
新御茶ノ水,35.698072,139.766014,eco,830.760,16.51101,16時間30分40秒,1時間59分20秒
中野(東京),35.705765,139.665835,heat,831.365,16.51446,16時間30分52秒,1時間59分8秒
高円寺,35.705326,139.649664,cool,831.655,16.51611,16時間30分58秒,1時間59分2秒
阿佐ケ谷,35.704818,139.635868,cool,831.919,16.51761,16時間31分3秒,1時間58分57秒
荻窪,35.704523,139.620109,heat,832.192,16.51916,16時間31分9秒,1時間58分51秒
西荻窪,35.703842,139.599361,cool,832.586,16.52141,16時間31分17秒,1時間58分43秒
武蔵境,35.702083,139.543402,cool,833.657,16.52749,16時間31分39秒,1時間58分21秒
東小金井,35.701643,139.524837,cool,834.003,16.52945,16時間31分46秒,1時間58分14秒
武蔵小金井,35.701337,139.506483,cool,834.333,16.53133,16時間31分53秒,1時間58分7秒
国立,35.69923,139.44634,cool,835.557,16.53826,16時間32分18秒,1時間57分42秒
東中野,35.706529,139.684436,cool,831.006,16.51241,16時間30分45秒,1時間59分15秒
大久保(東京),35.700784,139.69732,cool,831.447,16.51493,16時間30分54秒,1時間59分6秒
千駄ケ谷,35.681231,139.711644,heat,833.384,16.52594,16時間31分33秒,1時間58分27秒
信濃町,35.680031,139.720729,heat,833.385,16.52595,16時間31分33秒,1時間58分27秒
市ケ谷(市ヶ谷),35.691105,139.735241,heat,831.961,16.51785,16時間31分4秒,1時間58分56秒
飯田橋,35.701835,139.745143,eco,830.642,16.51034,16時間30分37秒,1時間59分23秒
水道橋,35.702039,139.754312,eco,830.489,16.50947,16時間30分34秒,1時間59分26秒
浅草橋,35.697403,139.784427,heat,830.577,16.50997,16時間30分36秒,1時間59分24秒
両国,35.69579,139.793334,heat,830.631,16.51028,16時間30分37秒,1時間59分23秒
錦糸町,35.696802,139.814136,heat,830.235,16.50802,16時間30分29秒,1時間59分31秒
亀戸,35.697345,139.826262,heat,830.010,16.50674,16時間30分24秒,1時間59分36秒
平井(東京),35.70643,139.842181,heat,828.797,16.49982,16時間29分59秒,2時間0分1秒
新小岩,35.716903,139.857777,heat,827.438,16.49205,16時間29分31秒,2時間0分29秒
小岩,35.733207,139.881755,heat,825.328,16.47996,16時間28分48秒,2時間1分12秒
市川,35.728903,139.908142,cool,825.460,16.48072,16時間28分51秒,2時間1分9秒
本八幡,35.720898,139.92741,cool,826.095,16.48436,16時間29分4秒,2時間0分56秒
京成八幡,35.723811,139.92816,heat,825.765,16.48247,16時間28分57秒,2時間1分3秒
下総中山,35.714276,139.943092,heat,826.627,16.48741,16時間29分15秒,2時間0分45秒
船橋,35.701865,139.984707,cool,827.480,16.49229,16時間29分32秒,2時間0分28秒
京成船橋,35.700161,139.985451,heat,827.659,16.49331,16時間29分36秒,2時間0分24秒
東船橋,35.699811,140.00393,eco,827.475,16.49226,16時間29分32秒,2時間0分28秒
津田沼,35.691367,140.020179,cool,828.213,16.49648,16時間29分47秒,2時間0分13秒
幕張本郷,35.672664,140.042241,cool,830.016,16.50677,16時間30分24秒,1時間59分36秒
京成幕張本郷,35.672551,140.042091,cool,830.031,16.50686,16時間30分25秒,1時間59分35秒
幕張,35.6594,140.057899,cool,831.299,16.51408,16時間30分51秒,1時間59分9秒
京成幕張,35.66078,140.05591,cool,831.169,16.51334,16時間30分48秒,1時間59分12秒
新検見川,35.65169,140.073025,cool,831.977,16.51794,16時間31分5秒,1時間58分55秒
稲毛,35.637264,140.09256,cool,833.350,16.52575,16時間31分33秒,1時間58分27秒
西千葉,35.622639,140.103337,cool,834.845,16.53423,16時間32分3秒,1時間57分57秒
千葉,35.612926,140.113478,cool,835.806,16.53967,16時間32分23秒,1時間57分37秒
京成千葉,35.611618,140.114267,eco,835.942,16.54044,16時間32分26秒,1時間57分34秒
新日本橋,35.689016,139.774265,heat,831.640,16.51602,16時間30分58秒,1時間59分2秒
三越前,35.687156,139.773571,heat,831.854,16.51724,16時間31分2秒,1時間58分58秒
馬喰町,35.693365,139.78238,heat,831.049,16.51266,16時間30分46秒,1時間59分14秒
東日本橋,35.692126,139.784821,heat,831.151,16.51324,16時間30分48秒,1時間59分12秒
馬喰横山,35.69212,139.782768,cool,831.180,16.51341,16時間30分48秒,1時間59分12秒
東千葉,35.617014,140.122261,cool,835.259,16.53658,16時間32分12秒,1時間57分48秒
都賀,35.636088,140.149222,cool,832.864,16.52299,16時間31分23秒,1時間58分37秒
四街道,35.662756,140.165023,cool,829.752,16.50527,16時間30分19秒,1時間59分41秒
物井,35.68566,140.200263,cool,826.856,16.48872,16時間29分19秒,2時間0分41秒
佐倉,35.709743,140.226722,heat,823.927,16.47192,16時間28分19秒,2時間1分41秒
南酒々井,35.704217,140.267828,cool,824.133,16.47310,16時間28分23秒,2時間1分37秒
榎戸(千葉),35.683967,140.288136,cool,826.178,16.48483,16時間29分5秒,2時間0分55秒
八街,35.663228,140.317304,cool,828.200,16.49640,16時間29分47秒,2時間0分13秒
日向,35.628402,140.362447,heat,831.648,16.51607,16時間30分58秒,1時間59分2秒
成東,35.608513,140.410109,heat,833.444,16.52628,16時間31分35秒,1時間58分25秒
松尾(千葉),35.63604,140.457587,heat,830.010,16.50674,16時間30分24秒,1時間59分36秒
横芝,35.661739,140.490736,heat,826.905,16.48900,16時間29分20秒,2時間0分40秒
飯倉,35.685638,140.522328,heat,824.019,16.47245,16時間28分21秒,2時間1分39秒
八日市場,35.699317,140.552419,heat,822.284,16.46247,16時間27分45秒,2時間2分15秒
干潟,35.718308,140.603304,heat,819.826,16.44830,16時間26分54秒,2時間3分6秒
旭(千葉),35.721831,140.655041,eco,819.100,16.44410,16時間26分39秒,2時間3分21秒
飯岡,35.729339,140.683896,eco,818.091,16.43827,16時間26分18秒,2時間3分42秒
倉橋,35.737836,140.714018,eco,816.971,16.43178,16時間25分54秒,2時間4分6秒
猿田,35.747383,140.7374,eco,815.780,16.42488,16時間25分30秒,2時間4分30秒
松岸,35.739386,140.795143,cool,816.364,16.42826,16時間25分42秒,2時間4分18秒
銚子,35.729449,140.827557,cool,817.310,16.43375,16時間26分1秒,2時間3分59秒
西立川,35.703526,139.393556,heat,835.984,16.54068,16時間32分26秒,1時間57分34秒
東中神,35.706337,139.384529,heat,835.833,16.53983,16時間32分23秒,1時間57分37秒
中神,35.709058,139.375816,heat,835.687,16.53900,16時間32分20秒,1時間57分40秒
昭島,35.713305,139.361564,heat,835.473,16.53779,16時間32分16秒,1時間57分44秒
拝島,35.721278,139.343468,heat,834.922,16.53467,16時間32分5秒,1時間57分55秒
