name,name_kana,lat,lng,radius,pt,coordinates
星置,ほしおき,43.132375,141.210856,0,1,"[[141.273378, 43.309456], [141.253698, 43.453841], [141.209115, 43.247712], [141.197014, 43.073969], [141.274675, 43.293881], [141.273378, 43.309456]]"
月ヶ岡,つきがおか,43.324867,141.61807,0,1,"[[141.34061, 43.551163], [141.642271, 43.287869], [141.605611, 43.458341], [141.578304, 43.547288], [141.56033, 43.588569], [141.34061, 43.551163]]"
石狩月形,いしかりつきがた,43.340869,141.670193,0,1,"[[141.732626, 43.284181], [141.701367, 43.263786], [141.692785, 43.261348], [141.605611, 43.458341], [141.578304, 43.547288], [141.732814, 43.284537], [141.732626, 43.284181]]"
北星,ほくせい,44.441569,142.428116,0,1,"[[142.914096, 44.918666], [143.282579, 45.134003], [143.203348, 44.906976], [142.385614, 44.370918], [142.380438, 44.368835], [142.369097, 44.369328], [142.376658, 44.391], [142.395224, 44.423541], [142.914096, 44.918666]]"
新月,にいつき,38.915598,141.488796,0,1,"[[141.448534, 38.893806], [141.4323, 38.844368], [141.499879, 38.851616], [141.510489, 38.855637], [141.519665, 38.880824], [141.522159, 38.891587], [141.526076, 38.940917], [141.504282, 38.979077], [141.448534, 38.893806]]"
月岡(新潟),つきおか,37.889334,139.272488,0,1,"[[139.273325, 37.919605], [139.342786, 37.82787], [139.313868, 37.818514], [139.239454, 37.895846], [139.24426, 37.904994], [139.266128, 37.919321], [139.273325, 37.919605]]"
池月,いけづき,38.708948,140.835732,0,1,"[[140.945706, 38.77641], [140.800203, 38.655384], [140.764073, 38.634986], [140.905044, 38.920179], [140.928409, 38.878109], [140.945706, 38.77641]]"
大月,おおつき,35.613222,138.942729,0,1,"[[138.898062, 35.793147], [138.918435, 35.791034], [138.957521, 35.760298], [138.9553, 35.593651], [138.892657, 35.667916], [138.876876, 35.716855], [138.884166, 35.761776], [138.898062, 35.793147]]"
相月,あいづき,35.114988,137.854345,0,1,"[[137.938801, 34.99272], [137.951045, 35.014831], [137.968594, 35.05935], [137.971675, 35.07101], [137.815641, 35.142858], [137.812412, 35.141325], [137.879246, 35.012457], [137.898673, 34.978812], [137.907776, 34.977591], [137.922968, 34.981335], [137.931746, 34.983708], [137.938801, 34.99272]]"
高月,たかつき,35.470337,136.237716,0,1,"[[136.405131, 35.546381], [136.163064, 35.415991], [136.17479, 35.463433], [136.405133, 35.567034], [136.405131, 35.546381]]"
速星,はやほし,36.664135,137.160428,0,1,"[[137.115266, 36.679046], [137.169669, 36.627274], [137.190949, 36.631431], [137.192074, 36.651811], [137.191767, 36.654708], [137.127535, 36.693658], [137.115266, 36.679046]]"
月ヶ瀬口,つきがせぐち,34.762813,136.023703,0,1,"[[136.010707, 34.669435], [136.021722, 34.672819], [136.043199, 34.683778], [136.05105, 34.689524], [136.029511, 34.824248], [136.020518, 34.827208], [135.982611, 34.674224], [135.982887, 34.6676], [136.010707, 34.669435]]"
小月,おづき,34.067907,131.033038,0,1,"[[130.968755, 34.089177], [130.971342, 34.074557], [131.047303, 34.022197], [131.082071, 34.122093], [131.071771, 34.149319], [131.051215, 34.187112], [131.038005, 34.177733], [130.999329, 34.138137], [130.975867, 34.104686], [130.968775, 34.09042], [130.968755, 34.089177]]"
星田,ほしだ,34.767346,135.663455,0,1,"[[135.67441, 34.77103], [135.67499, 34.769058], [135.675302, 34.746876], [135.64538, 34.772568], [135.65167, 34.784418], [135.661567, 34.78207], [135.672589, 34.775235], [135.67441, 34.77103]]"
三日月,みかづき,34.984846,134.435318,0,1,"[[134.414229, 34.926446], [134.404912, 34.93827], [134.414918, 35.026478], [134.498187, 35.115189], [134.547769, 35.154915], [134.567601, 35.107987], [134.567805, 35.10721], [134.523115, 35.044923], [134.414229, 34.926446]]"
上月,こうづき,34.983425,134.32251,0,1,"[[134.309997, 35.043355], [134.345615, 34.983218], [134.285427, 34.927026], [134.27907, 34.924037], [134.301443, 35.044221], [134.308959, 35.04372], [134.309997, 35.043355]]"
月田,つきだ,35.048195,133.666839,0,1,"[[133.683936, 34.926928], [133.639684, 34.944421], [133.627532, 34.952245], [133.645008, 35.095218], [133.713402, 35.036261], [133.683936, 34.926928]]"
赤星,あかぼし,33.96673,133.456352,0,1,"[[133.410833, 34.228363], [133.411305, 34.228449], [133.43044, 34.204275], [133.474615, 34.0944], [133.48254, 33.816444], [133.395496, 34.133376], [133.398138, 34.224572], [133.410833, 34.228363]]"
二月田,にがつでん,31.254339,130.630082,0,1,"[[130.618851, 31.233009], [130.729319, 31.312653], [130.586465, 31.248497], [130.580445, 31.243349], [130.581988, 31.241672], [130.598672, 31.232987], [130.618851, 31.233009]]"
五月台,さつきだい,35.600174,139.493542,0,1,"[[139.496477, 35.618264], [139.494537, 35.618633], [139.483559, 35.594445], [139.487457, 35.591759], [139.501749, 35.597261], [139.496477, 35.618264]]"
花月総持寺,かげつそうじじ,35.500358,139.672813,0,1,"[[139.675273, 35.494298], [139.674628, 35.492682], [139.659006, 35.510783], [139.673497, 35.504778], [139.675273, 35.494298]]"
月島,つきしま,35.664871,139.784233,0,1,"[[139.786033, 35.673136], [139.79065, 35.660405], [139.787872, 35.657065], [139.784963, 35.656027], [139.777908, 35.664664], [139.778495, 35.666769], [139.779582, 35.668815], [139.786033, 35.673136]]"
星川(神奈川),ほしかわ,35.458634,139.594816,0,1,"[[139.604055, 35.465245], [139.596217, 35.469879], [139.58166, 35.446326], [139.596272, 35.452293], [139.604055, 35.465245]]"
上星川,かみほしかわ,35.467694,139.580078,0,1,"[[139.571944, 35.446836], [139.560628, 35.453892], [139.56137, 35.456973], [139.576239, 35.477504], [139.587585, 35.472446], [139.571944, 35.446836]]"
本星崎,もとほしざき,35.087392,136.937378,0,1,"[[136.924231, 35.080343], [136.925287, 35.076184], [136.940723, 35.07862], [136.949138, 35.091603], [136.946774, 35.094463], [136.942784, 35.09578], [136.932627, 35.092365], [136.924231, 35.080343]]"
明星,みょうじょう,34.531112,136.642597,0,1,"[[136.623597, 34.512792], [136.666099, 34.683731], [136.670239, 34.687685], [136.687661, 34.693314], [136.701591, 34.696961], [136.714133, 34.685621], [136.64899, 34.50799], [136.648743, 34.507725], [136.623597, 34.512792]]"
観月橋,かんげつきょう,34.928103,135.768642,0,1,"[[135.765318, 34.921211], [135.764297, 34.928252], [135.766586, 34.930428], [135.768436, 34.931523], [135.776888, 34.925886], [135.777615, 34.92218], [135.765318, 34.921211]]"
星ヶ丘(大阪),ほしがおか,34.807696,135.659755,0,1,"[[135.680078, 34.81853], [135.647864, 34.794012], [135.647097, 34.796297], [135.648684, 34.804703], [135.64996, 34.806351], [135.67955, 34.821884], [135.680078, 34.81853]]"
月寒中央,つきさむちゅうおう,43.030553,141.396263,0,1,"[[141.402164, 43.038322], [141.406487, 43.031299], [141.385784, 43.01544], [141.384786, 43.022142], [141.393688, 43.038311], [141.402164, 43.038322]]"
月崎,つきざき,35.302203,140.139394,0,1,"[[140.178611, 35.305249], [140.105695, 35.317053], [140.109286, 35.281215], [140.178611, 35.305249]]"
中央大学・明星大学,ちゅうおうだいがく・めいせいだいがく,35.64197,139.408672,0,1,"[[139.411431, 35.648262], [139.393687, 35.638355], [139.407548, 35.631748], [139.41771, 35.647292], [139.411431, 35.648262]]"
上大月,かみおおつき,35.609341,138.938128,0,1,"[[138.955441, 35.592445], [138.907948, 35.612946], [138.892657, 35.667916], [138.9553, 35.593651], [138.955441, 35.592445]]"
月江寺,げっこうじ,35.493313,138.798105,0,1,"[[138.785529, 35.507971], [138.790375, 35.490038], [138.809385, 35.485334], [138.786395, 35.513121], [138.785529, 35.507971]]"
早月加積,はやつきかづみ,36.784082,137.372079,0,1,"[[137.386675, 36.748793], [137.315562, 36.86284], [137.323313, 36.85675], [137.336886, 36.844412], [137.404459, 36.741088], [137.386675, 36.748793]]"
宇奈月温泉,うなづきおんせん,36.815694,137.583541,0,1,"[[137.492657, 36.753325], [137.495339, 36.710808], [137.521611, 36.695176], [137.540473, 36.710897], [137.564976, 36.745638], [137.594427, 36.849751], [137.492657, 36.753325]]"
宇奈月,うなづき,36.815038,137.58586,0,1,"[[137.564976, 36.745638], [137.594427, 36.849751], [137.616413, 36.872036], [137.638878, 36.889646], [137.663233, 36.880147], [137.564976, 36.745638]]"
月岡(富山),つきおか,36.626475,137.263341,0,1,"[[137.276189, 36.662273], [137.284208, 36.651806], [137.284959, 36.650522], [137.248343, 36.585466], [137.236025, 36.595402], [137.267947, 36.662601], [137.276189, 36.662273]]"
尾張星の宮,おわりほしのみや,35.212988,136.855011,0,1,"[[136.854802, 35.204117], [136.85287, 35.204455], [136.850225, 35.206078], [136.845125, 35.214171], [136.844687, 35.21906], [136.853567, 35.233707], [136.860199, 35.230307], [136.865475, 35.219282], [136.866034, 35.211947], [136.863361, 35.208188], [136.854802, 35.204117]]"
星ヶ丘(愛知),ほしがおか,35.162399,136.985095,0,1,"[[136.977471, 35.170932], [136.98121, 35.147442], [136.988234, 35.145668], [136.997763, 35.146455], [137.000239, 35.147248], [136.98308, 35.179117], [136.977471, 35.170932]]"
星川(三重),ほしかわ,35.064398,136.630113,0,1,"[[136.631858, 35.04397], [136.618353, 35.048363], [136.617442, 35.049058], [136.631031, 35.09269], [136.634786, 35.091441], [136.64266, 35.083586], [136.631858, 35.04397]]"
月見山,つきみやま,34.649992,135.121949,0,1,"[[135.125957, 34.651357], [135.121715, 34.644212], [135.110721, 34.660102], [135.115712, 34.662468], [135.125957, 34.651357]]"
筑豊香月,ちくほうかつき,33.799502,130.719099,0,1,"[[130.720622, 33.808487], [130.709214, 33.799056], [130.710036, 33.79008], [130.711916, 33.789141], [130.741789, 33.804959], [130.730929, 33.808601], [130.725418, 33.809197], [130.720622, 33.808487]]"
黒部宇奈月温泉,くろべうなづきおんせん,36.874106,137.481113,0,1,"[[137.475752, 36.878852], [137.474713, 36.903871], [137.486786, 36.908572], [137.495388, 36.906282], [137.491402, 36.890009], [137.482766, 36.871334], [137.475752, 36.878852]]"
羽月,はつき,32.032028,130.596583,0,1,"[[130.507935, 32.030251], [130.47818, 32.064769], [130.485679, 32.096049], [130.486273, 32.096605], [130.638112, 32.031319], [130.570807, 32.011299], [130.507935, 32.030251]]"
岩月,いわつき,38.862278,141.584076,0,1,"[[141.683056, 38.876166], [141.711101, 38.862807], [141.754328, 38.823526], [141.632287, 38.842191], [141.560816, 38.864714], [141.562983, 38.86629], [141.683056, 38.876166]]"
